City_ID,City,Lat,Lng,Max Temp,Humidity,Cloudiness,Wind Speed,Country,Date
0,portrush,55.1959,-6.6493,10.34,91,65,4.15,GB,1689565760
1,ushuaia,-54.8,-68.3,0.81,75,40,1.54,AR,1689565760
2,brisas de zicatela,15.8369,-97.0419,26.64,83,100,1.52,MX,1689565760
3,udachny,66.4167,112.4,10.25,87,100,5.22,RU,1689565760
4,port-aux-francais,-49.35,70.2167,2.19,61,91,7.04,TF,1689565760
5,edinburgh of the seven seas,-37.0676,-12.3116,12.89,65,2,12.08,SH,1689565760
6,sao gabriel da cachoeira,-0.1303,-67.0892,22.61,99,100,0.78,BR,1689565760
7,east london,-33.0153,27.9116,16.12,44,55,2.15,ZA,1689565761
8,la passe,45.5549,-0.8967,17.77,80,1,1.47,FR,1689565761
9,bridgewater,44.3835,-64.5155,21.17,94,100,5.66,CA,1689565761
10,atherton,53.5237,-2.4935,13.75,90,16,1.9,GB,1689565761
11,port mathurin,-19.6833,63.4167,23.17,72,94,11.65,MU,1689565761
12,castanos,26.7833,-101.4167,33.52,21,7,5.08,MX,1689565762
13,flying fish cove,-10.4217,105.6791,25.82,78,100,5.14,CX,1689565762
14,adamstown,-25.066,-130.1015,21.37,78,100,4.54,PN,1689565762
15,bethel,41.3712,-73.414,24.05,90,100,0.0,US,1689565738
16,klyuchi,52.2667,79.1667,23.35,52,20,3.47,RU,1689565762
17,nizao,18.25,-70.2,27.48,79,100,5.86,DO,1689565762
18,canutama,-6.5339,-64.3831,23.43,86,76,0.5,BR,1689565763
19,minas de marcona,-15.2119,-75.1103,12.12,87,29,4.57,PE,1689565763
20,montepuez,-13.1256,38.9997,15.93,84,12,3.55,MZ,1689565764
21,blackmans bay,-43.0167,147.3167,15.96,52,46,4.03,AU,1689565764
22,yellowknife,62.456,-114.3525,21.29,52,100,3.09,CA,1689565485
23,constantia,44.1833,28.65,20.39,61,0,1.95,RO,1689565765
24,bredasdorp,-34.5322,20.0403,12.36,78,100,2.48,ZA,1689565765
25,bilibino,68.0546,166.4372,27.32,29,92,6.05,RU,1689565765
26,college,64.8569,-147.8028,21.99,46,75,3.09,US,1689565765
27,papatowai,-46.5619,169.4708,10.17,90,100,7.58,NZ,1689565766
28,puerto ayora,-0.7393,-90.3518,24.75,95,55,2.68,EC,1689565766
29,stanley,54.868,-1.6985,10.95,90,20,2.06,GB,1689565766
30,trairi,-3.2778,-39.2689,25.3,80,7,4.96,BR,1689565766
31,hadibu,12.65,54.0333,25.38,81,85,10.93,YE,1689565766
32,cafayate,-26.073,-65.9761,8.38,64,13,1.41,AR,1689565766
33,siwa oasis,29.2041,25.5195,27.99,39,0,2.24,EG,1689565767
34,dawson creek,55.7666,-120.2362,17.54,88,40,4.12,CA,1689565767
35,holualoa,19.6228,-155.9522,25.91,81,100,4.12,US,1689565767
36,houghton,47.1219,-88.569,14.71,94,100,3.09,US,1689565500
37,saipan,15.1355,145.701,31.39,100,75,7.72,MP,1689565767
38,ribeira grande,38.5167,-28.7,18.21,84,20,3.13,PT,1689565768
39,keflavik,64.0049,-22.5624,8.95,76,0,4.12,IS,1689565768
40,dunedin,-45.8742,170.5036,15.45,44,100,5.1,NZ,1689565683
41,port elizabeth,-33.918,25.5701,8.16,93,0,2.06,ZA,1689565768
42,port saint john's,-31.6229,29.5448,16.17,55,70,2.95,ZA,1689565769
43,salekhard,66.53,66.6019,22.31,50,99,5.15,RU,1689565769
44,hithadhoo,-0.6,73.0833,27.7,72,77,1.24,MV,1689565769
45,nyakabindi,-2.6333,33.9833,15.66,58,2,2.98,TZ,1689565769
46,puerto natales,-51.7236,-72.4875,-0.6,90,99,2.19,CL,1689565769
47,luderitz,-26.6481,15.1594,17.19,43,0,2.53,NA,1689565769
48,taoudenni,22.6783,-3.9836,34.64,31,47,4.2,ML,1689565769
49,callao,-12.0667,-77.15,21.16,73,75,5.14,PE,1689565770
50,new norfolk,-42.7826,147.0587,16.62,58,26,4.93,AU,1689565770
51,redwood falls,44.5394,-95.1169,16.97,59,0,2.57,US,1689565770
52,kapuskasing,49.4169,-82.4331,15.0,94,75,2.06,CA,1689565561
53,sept-iles,50.2001,-66.3821,17.29,99,100,3.13,CA,1689565770
54,hafar al-batin,28.4328,45.9708,32.32,12,0,1.54,SA,1689565770
55,olonkinbyen,70.9221,-8.7187,3.99,97,100,9.88,SJ,1689565771
56,swakopmund,-22.6833,14.5333,21.47,34,0,5.06,NA,1689565771
57,aasiaat,68.7098,-52.8699,2.63,95,100,2.51,GL,1689565771
58,thompson,55.7435,-97.8558,16.09,82,100,2.06,CA,1689565632
59,sundsvall,62.3913,17.3063,14.98,88,75,3.6,SE,1689565771
60,ndioum,16.5129,-14.6471,26.94,73,94,7.2,SN,1689565771
61,byron bay,-28.65,153.6167,19.78,62,94,4.69,AU,1689565493
62,lewistown,40.5992,-77.5714,22.41,94,0,0.0,US,1689565750
63,invercargill,-46.4,168.35,10.74,90,100,8.52,NZ,1689565772
64,malvan,16.0667,73.4667,26.78,86,100,7.03,IN,1689565772
65,carauari,-4.8828,-66.8958,22.86,95,98,0.76,BR,1689565772
66,veraval,20.9,70.3667,28.5,79,65,5.49,IN,1689565772
67,xining,36.6167,101.7667,22.1,43,43,1.16,CN,1689565772
68,margaret river,-33.95,115.0667,16.07,64,69,1.88,AU,1689565772
69,mazamari,-11.3258,-74.5308,23.14,77,91,0.56,PE,1689565773
70,dudinka,69.4058,86.1778,10.9,45,35,8.29,RU,1689565773
71,avarua,-21.2078,-159.775,23.03,60,100,2.57,CK,1689565773
72,jamestown,42.097,-79.2353,20.95,77,0,2.57,US,1689565773
73,fale old settlement,-9.3852,-171.2468,28.68,75,13,7.51,TK,1689565773
74,saint-louis,16.3333,-15.0,26.8,75,92,6.75,SN,1689565773
75,palmer,42.1584,-72.3287,23.65,86,75,2.57,US,1689565774
76,aibonito,18.14,-66.266,25.04,95,100,4.02,PR,1689565774
77,newtownabbey,54.6598,-5.9086,11.94,89,11,2.57,GB,1689565774
78,tolanaro,-25.0319,46.9987,17.04,94,20,0.0,MG,1689565774
79,korhogo,9.45,-5.6333,21.27,96,99,1.46,CI,1689565701
80,susuman,62.7833,148.1667,20.15,43,100,3.65,RU,1689565774
81,waitangi,-43.9535,-176.5597,9.9,79,100,1.34,NZ,1689565774
82,touros,-5.1989,-35.4608,22.96,87,11,4.74,BR,1689565774
83,tura,25.5198,90.2201,26.58,83,100,2.06,IN,1689565775
84,prince rupert,54.3161,-130.3201,15.05,86,100,3.09,CA,1689565511
85,gryazovets,58.88,40.2525,17.06,75,100,1.92,RU,1689565775
86,broken hill,-31.95,141.4333,15.04,38,3,2.51,AU,1689565648
87,longyearbyen,78.2186,15.6401,6.91,70,75,5.66,SJ,1689565775
88,cassilandia,-19.1133,-51.7342,20.6,56,61,1.57,BR,1689565775
89,st. john's,47.5649,-52.7093,20.15,95,100,5.14,CA,1689565621
90,kodiak,57.79,-152.4072,12.73,82,100,1.54,US,1689565776
91,bumba,2.1833,22.4667,22.6,79,12,0.26,CD,1689565776
92,badger,64.8,-147.5333,21.95,45,100,3.09,US,1689565776
93,luganville,-15.5333,167.1667,24.7,85,99,7.51,VU,1689565776
94,albany,42.6001,-73.9662,21.98,93,78,1.61,US,1689565510
95,hasaki,35.7333,140.8333,33.22,70,59,3.58,JP,1689565776
96,codrington,-38.2667,141.9667,13.44,62,0,5.64,AU,1689565776
97,nemuro,43.3236,145.575,13.28,92,99,2.66,JP,1689565777
98,road town,18.4167,-64.6167,28.05,79,98,9.86,VG,1689565649
99,maun,-19.9833,23.4167,8.97,45,37,2.8,BW,1689565777
100,tiksi,71.6872,128.8694,7.77,90,100,6.28,RU,1689565777
101,utrik,11.2278,169.8474,28.12,79,77,6.65,MH,1689565777
102,grytviken,-54.2811,-36.5092,-6.56,84,84,2.02,GS,1689565777
103,nantucket,41.2835,-70.0995,22.78,99,75,5.66,US,1689565777
104,hawaiian paradise park,19.5933,-154.9731,25.73,82,100,3.6,US,1689565778
105,ambon,-3.6954,128.1814,27.91,100,40,3.09,ID,1689565778
106,tazovsky,67.4667,78.7,13.04,73,100,7.83,RU,1689565778
107,nanakuli,21.3906,-158.1547,28.97,58,75,5.14,US,1689565778
108,parun,35.4207,70.9221,19.59,33,0,0.17,AF,1689565778
109,argo,37.6333,22.7333,28.77,51,0,2.14,GR,1689565778
110,lagoa,39.05,-27.9833,19.19,73,26,3.04,PT,1689565779
111,pathein,16.7833,94.7333,26.94,85,100,4.37,MM,1689565779
112,suluru,13.7,80.0167,32.31,49,100,6.37,IN,1689565779
113,altay,47.8667,88.1167,27.32,21,1,2.38,CN,1689565779
114,iqaluit,63.7506,-68.5145,6.85,100,100,2.24,CA,1689565779
115,kelo,9.3086,15.8066,24.65,71,3,1.55,TD,1689565779
116,happy valley-goose bay,53.3168,-60.3315,23.17,73,75,5.14,CA,1689565779
117,ilulissat,69.2167,-51.1,5.01,100,100,1.03,GL,1689565779
118,iskateley,67.6803,53.1512,17.06,75,71,4.09,RU,1689565780
119,gadzhiyevo,69.2551,33.3362,16.92,64,100,4.43,RU,1689565780
120,cabo san lucas,22.8909,-109.9124,29.17,76,0,4.63,MX,1689565673
121,itaberaba,-12.5275,-40.3069,18.11,96,1,0.48,BR,1689565780
122,longuenesse,50.734,2.2352,13.6,91,6,3.47,FR,1689565780
123,afaahiti,-17.75,-149.2833,26.7,57,1,1.81,PF,1689565780
124,lerwick,60.1545,-1.1494,12.0,90,100,7.2,GB,1689565781
125,hamilton,39.1834,-84.5333,22.82,92,75,3.6,US,1689565659
126,aras-asan,8.8908,126.3033,27.6,82,84,2.78,PH,1689565781
127,olyokminsk,60.3736,120.4264,27.39,33,49,5.31,RU,1689565781
128,abilene,32.4487,-99.7331,32.12,34,0,3.09,US,1689565496
129,amuntai,-2.4177,115.2494,24.95,80,100,0.44,ID,1689565781
130,tucurui,-3.7661,-49.6725,25.94,63,81,1.2,BR,1689565781
131,northam,51.0333,-4.2167,13.7,90,13,4.88,GB,1689565782
132,crane,31.3974,-102.3501,31.84,25,0,7.17,US,1689565782
133,bathsheba,13.2167,-59.5167,27.34,89,40,7.72,BB,1689565782
134,as salamiyah,35.0113,37.0532,26.47,37,0,2.8,SY,1689565782
135,mana,5.6592,-53.7767,25.16,91,16,4.17,GF,1689565782
136,benguela,-12.5763,13.4055,21.33,71,3,2.38,AO,1689565782
137,morehead city,34.7229,-76.726,28.34,90,0,4.12,US,1689565782
138,ponta delgada,37.7333,-25.6667,19.4,82,75,4.63,PT,1689565612
139,chirilagua,13.2203,-88.1386,25.89,65,100,1.02,SV,1689565783
140,atafu village,-8.5421,-172.5159,28.82,76,98,7.45,TK,1689565783
141,chibougamau,49.9168,-74.3659,18.79,94,0,1.54,CA,1689565726
142,bom jardim,-7.7958,-35.5872,18.69,96,7,1.3,BR,1689565783
143,kasongo-lunda,-6.4667,16.8167,20.43,46,0,1.28,CD,1689565783
144,rongelap,11.1635,166.8941,28.45,78,85,6.17,MH,1689565783
145,west island,-12.1568,96.8225,26.99,61,40,6.17,CC,1689565783
146,boise,43.6135,-116.2035,35.45,33,29,3.08,US,1689565746
147,petropavlovsk-kamchatsky,53.0452,158.6483,19.33,68,75,6.0,RU,1689565784
148,antalaha,-14.9003,50.2788,20.84,90,63,3.05,MG,1689565784
149,ouahigouya,13.5828,-2.4216,28.66,60,93,2.4,BF,1689565784
150,khilok,51.3674,110.4676,29.59,35,71,2.0,RU,1689565784
151,halifax,44.6453,-63.5724,20.94,95,100,4.63,CA,1689565784
152,as sulayyil,20.4607,45.5779,29.14,11,98,2.55,SA,1689565784
153,portland,45.5234,-122.6762,26.97,49,0,5.14,US,1689565504
154,marka,1.7159,44.7717,24.97,81,80,7.21,SO,1689565785
155,ancud,-41.8697,-73.8203,2.04,87,25,3.12,CL,1689565785
156,cowansville,45.2001,-72.7491,22.27,95,100,1.03,CA,1689565785
157,zouerate,22.7187,-12.4521,24.83,52,3,6.16,MR,1689565785
158,puerto armuelles,8.2833,-82.8667,27.27,84,100,1.34,PA,1689565785
159,laguna,38.421,-121.4238,36.36,42,0,6.69,US,1689565786
160,san luis de la loma,17.2706,-100.8939,27.61,87,30,0.81,MX,1689565786
161,punta arenas,-53.15,-70.9167,4.06,75,75,8.23,CL,1689565593
162,nola,40.922,14.5329,28.13,79,0,0.98,IT,1689565786
163,enewetak,11.3474,162.3373,28.4,78,98,6.21,MH,1689565786
164,turtas,58.9417,69.1325,20.37,53,50,2.9,RU,1689565786
165,kodinsk,58.6881,99.1844,23.24,48,59,4.17,RU,1689565786
166,chonchi,-42.6128,-73.8092,1.73,92,7,1.02,CL,1689565788
167,anadyr,64.75,177.4833,26.28,34,0,6.0,RU,1689565788
168,tamanrasset,22.785,5.5228,24.95,27,9,2.06,DZ,1689565692
169,pinsk,52.1229,26.0951,19.79,90,29,2.21,BY,1689565788
170,sinabang,2.4803,96.3801,28.37,72,100,2.01,ID,1689565788
171,sandnessjoen,66.0217,12.6316,15.23,82,75,8.23,NO,1689565788
172,tsiombe,-25.3,45.4833,15.58,87,20,2.01,MG,1689565789
173,manali,13.1667,80.2667,32.05,70,100,5.08,IN,1689565789
174,black river,18.0264,-77.8487,26.78,82,40,1.35,JM,1689565789
175,mahdia,35.5047,11.0622,25.97,72,0,4.08,TN,1689565789
176,khash,28.2211,61.2158,31.41,9,3,2.29,IR,1689565789
177,whitby,54.4877,-0.615,12.95,87,42,0.89,GB,1689565733
178,gazojak,41.1875,61.4036,36.17,15,14,3.41,TM,1689565789
179,penzance,50.1186,-5.5371,13.38,83,33,6.94,GB,1689565790
180,uturoa,-16.7333,-151.4333,25.71,65,3,4.81,PF,1689565790
181,at taj,24.2049,23.2857,26.09,16,0,2.07,LY,1689565790
182,gelnhausen,50.2,9.1833,17.77,76,57,1.85,DE,1689565790
183,zorritos,-3.6805,-80.6782,26.16,78,93,2.19,PE,1689565790
184,talnakh,69.4865,88.3972,10.67,56,88,5.48,RU,1689565790
185,berezovyy,51.6667,135.7,27.22,47,69,3.16,RU,1689565790
186,tommot,58.9564,126.2925,23.53,50,34,4.0,RU,1689565791
187,hermanus,-34.4187,19.2345,9.89,79,100,3.25,ZA,1689565791
188,kolonia,50.9333,6.95,18.31,71,0,1.54,DE,1689565524
189,ust-nera,64.5667,143.2,17.06,39,100,2.86,RU,1689565791
190,ascension,30.2169,-90.9001,24.12,99,90,2.57,US,1689565791
191,whitehorse,60.7161,-135.0538,26.12,29,75,5.14,CA,1689565524
192,port alfred,-33.5906,26.891,16.21,50,36,2.98,ZA,1689565791
193,freetown,8.484,-13.2299,24.63,89,96,2.82,SL,1689565792
194,weno,7.4515,151.8468,26.97,89,100,1.54,FM,1689565792
195,porto novo,6.4965,2.6036,26.9,91,100,3.37,BJ,1689565792
196,tabas,33.5959,56.9244,35.45,14,0,1.5,IR,1689565792
197,baynjiwayn,35.6183,45.9541,28.36,17,0,1.62,IQ,1689565792
198,benjamin aceval,-24.9667,-57.5667,16.08,66,76,2.93,PY,1689565792
199,vorgashor,67.5833,63.95,17.0,83,100,5.66,RU,1689565792
200,wailua homesteads,22.0669,-159.378,27.24,84,75,8.75,US,1689565793
201,gordon,34.5004,-84.8666,24.94,96,47,0.0,US,1689565621
202,guaruja,-23.9931,-46.2564,19.38,26,8,0.47,BR,1689565662
203,kununurra,-15.7667,128.7333,30.99,27,7,5.66,AU,1689565793
204,tambopata,-12.7333,-69.1833,24.5,68,100,0.47,PE,1689565793
205,jiangyou,31.7667,104.7167,30.92,59,0,2.07,CN,1689565793
206,lower sackville,44.7733,-63.6885,20.45,96,75,4.63,CA,1689565793
207,morondava,-20.2833,44.2833,20.16,49,33,4.26,MG,1689565794
208,thunder bay,48.4001,-89.3168,11.99,94,75,2.06,CA,1689565748
209,luwuk,-0.9516,122.7875,29.06,63,95,3.4,ID,1689565794
210,vilyuchinsk,52.9306,158.4028,20.15,86,59,3.35,RU,1689565794
211,kone,-21.0595,164.8658,24.24,45,13,4.12,NC,1689565794
212,luanda,-8.8368,13.2343,21.0,88,75,1.03,AO,1689565794
213,astrakhan,46.3497,48.0408,19.95,64,0,5.0,RU,1689565720
214,kokoda,-8.8785,147.7407,31.54,50,47,0.91,PG,1689565795
215,odda,60.0691,6.5457,15.43,99,100,3.32,NO,1689565795
216,palestine,31.9216,35.2033,27.16,43,0,0.87,PS,1689565795
217,lompoc,34.6391,-120.4579,25.08,93,75,1.54,US,1689565795
218,guerrero negro,27.9769,-114.0611,20.5,83,13,5.24,MX,1689565795
219,fort st. john,56.2499,-120.8529,19.94,60,100,3.6,CA,1689565795
220,marsh harbour,26.5412,-77.0636,29.03,74,92,4.91,BS,1689565796
221,remire-montjoly,4.9167,-52.2667,23.02,100,20,0.0,GF,1689565796
222,smithers,54.7804,-127.1743,15.18,88,75,2.06,CA,1689565513
223,salavan,15.7167,106.4167,23.54,98,100,1.12,LA,1689565796
224,ibarreta,-25.2144,-59.8585,13.32,72,60,3.13,AR,1689565796
225,oromocto,45.8351,-66.4792,20.96,100,100,3.6,CA,1689565796
226,lulea,65.5842,22.1547,16.04,94,100,4.12,SE,1689565706
227,loango,-4.6719,11.8312,21.81,94,75,1.03,CG,1689565797
228,maua,-23.6678,-46.4614,18.16,65,28,0.89,BR,1689565797
229,segou,13.4317,-6.2157,26.52,74,100,3.05,ML,1689565797
230,ranikhet,29.65,79.4167,22.65,70,23,1.55,IN,1689565797
231,kalabo,-14.97,22.6814,8.7,65,1,2.5,ZM,1689565797
232,nuuk,64.1835,-51.7216,9.34,93,100,11.83,GL,1689565797
233,soro,21.2881,86.6858,31.04,67,100,1.56,IN,1689565798
234,george town,5.4112,100.3354,31.96,83,20,1.54,MY,1689565798
235,sisimiut,66.9395,-53.6735,7.5,97,100,1.87,GL,1689565798
236,palikir - national government center,6.9248,158.1611,27.47,78,100,5.14,FM,1689565798
237,khamis mushait,18.3064,42.7292,20.58,72,0,0.0,SA,1689565798
238,meridian,43.6121,-116.3915,35.62,34,0,0.0,US,1689565798
239,georgetown,5.4112,100.3354,31.96,83,20,1.54,MY,1689565693
240,mirny,62.5353,113.9611,20.92,46,100,4.64,RU,1689565799
241,kovel,51.2153,24.7087,20.76,85,8,2.05,UA,1689565799
242,sosnogorsk,63.6023,53.8817,22.16,46,15,2.15,RU,1689565799
243,grasberg,53.1833,8.9833,16.97,78,66,3.39,DE,1689565799
244,noumea,-22.2763,166.4572,22.78,99,93,6.64,NC,1689565799
245,horta,38.5333,-28.6333,17.79,84,22,3.13,PT,1689565799
246,tarawa,1.419,172.984,29.05,79,40,2.06,KI,1689565800
247,castillos,-34.1667,-53.8333,5.66,78,78,3.68,UY,1689565800
248,taghazout,30.5426,-9.7112,20.43,86,0,0.92,MA,1689565800
249,bezhetsk,57.7851,36.6965,16.99,77,0,1.62,RU,1689565800
250,jinchang,38.4953,102.1739,30.19,20,17,3.74,CN,1689565800
251,mount isa,-20.7333,139.5,26.87,29,40,4.63,AU,1689565801
252,tazacorte,28.629,-17.9293,22.54,75,75,8.23,ES,1689565801
253,haiku-pauwela,20.9219,-156.3051,28.01,59,40,8.75,US,1689565801
254,basco,20.4487,121.9702,29.52,79,98,5.15,PH,1689565801
255,carutapera,-1.195,-46.02,23.73,95,16,2.66,BR,1689565801
256,mareeba,-17.0,145.4333,24.69,60,54,3.49,AU,1689565801
257,puerto baquerizo moreno,-0.9,-89.6,24.99,85,53,5.51,EC,1689565802
258,bangui,4.3612,18.555,23.1,94,14,1.03,CF,1689565802
259,palmas,-10.2128,-48.3603,23.93,64,0,2.06,BR,1689565802
260,lihue,21.9789,-159.3672,27.58,80,75,8.75,US,1689565802
261,mejit,10.2753,170.8646,28.29,77,63,5.87,MH,1689565803
262,koungou,-12.7336,45.2042,25.84,73,75,7.72,YT,1689565803
263,floro,61.5996,5.0328,14.98,88,100,6.17,NO,1689565803
264,rabigh,22.7986,39.0349,30.19,74,18,2.39,SA,1689565803
265,zayed city,24.3768,54.589,35.56,49,0,3.6,AE,1689565804
266,north bend,43.4065,-124.2243,16.62,88,100,5.14,US,1689565804
267,lawas,13.764,121.0566,30.55,73,100,3.11,PH,1689565804
268,dori,14.0354,-0.0345,31.63,49,96,2.85,BF,1689565804
269,rawson,-43.3002,-65.1023,1.67,50,0,5.75,AR,1689565804
270,kenton,38.9501,-84.5333,22.33,81,75,3.6,US,1689565805
271,yemetsk,63.4721,41.7941,20.57,58,87,1.88,RU,1689565805
272,alo,7.4178,6.7371,23.61,98,100,1.22,NG,1689565805
273,greenville,35.6127,-77.3663,26.18,94,0,0.0,US,1689565505
274,pak phanang,8.3511,100.202,33.35,55,100,4.43,TH,1689565805
275,tralee,52.2704,-9.7026,11.25,93,76,3.53,IE,1689565806
276,am timan,11.0297,20.2827,23.25,78,100,1.18,TD,1689565806
277,aleksandrovsk,59.158,57.5624,21.56,55,9,2.86,RU,1689565806
278,benjamin constant,-4.3831,-70.0311,24.07,99,67,0.51,BR,1689565806
279,coutras,45.0333,-0.1333,16.03,76,87,1.41,FR,1689565806
280,port-vila,-17.7338,168.3219,24.78,69,75,9.26,VU,1689565807
281,port lincoln,-34.7333,135.8667,14.23,43,0,4.66,AU,1689565807
282,klaksvik,62.2266,-6.589,8.51,89,100,9.05,FO,1689565807
283,mount pearl,47.5166,-52.7813,19.69,95,100,5.14,CA,1689565579
284,tortoli,39.9256,9.6572,23.9,88,0,2.06,IT,1689565807
285,hotan,37.0997,79.9269,34.81,11,96,1.74,CN,1689565807
286,banda aceh,5.5577,95.3222,30.38,63,98,7.11,ID,1689565808
287,labrador city,52.9463,-66.9114,18.95,82,100,3.09,CA,1689565808
288,kosice,48.6667,21.3333,21.27,83,0,2.06,SK,1689565808
289,fort mcmurray,56.7268,-111.381,20.77,60,0,4.63,CA,1689565696
290,panchgani,17.9167,73.8167,17.72,95,100,2.66,IN,1689565808
291,lautoka,-17.6167,177.4667,25.92,69,75,1.03,FJ,1689565766
292,purranque,-40.9167,-73.1667,1.63,98,51,1.03,CL,1689565809
293,katsuren-haebaru,26.3369,127.8719,31.43,74,40,9.26,JP,1689565809
294,nuku'alofa,-21.1333,-175.2,24.19,64,20,5.66,TO,1689565809
295,ravar,31.2656,56.8055,33.25,11,0,1.01,IR,1689565810
296,fort bragg,35.139,-79.006,25.91,85,0,0.0,US,1689565810
297,bam,29.106,58.357,35.14,9,0,6.34,IR,1689565811
298,buala,-8.145,159.5921,27.94,79,76,1.12,SB,1689565811
299,polyarnyy,69.1989,33.4478,16.87,65,100,4.66,RU,1689565811
300,pangody,65.85,74.4859,17.12,64,99,7.41,RU,1689565811
301,kailua-kona,19.6406,-155.9956,27.98,81,100,4.12,US,1689565812
302,genhe,50.7833,121.5167,32.74,23,100,0.52,CN,1689565812
303,malanje,-9.5402,16.341,18.06,36,0,3.58,AO,1689565812
304,oakdale,44.963,-92.9649,18.65,57,0,4.63,US,1689565694
305,kargasok,59.0556,80.8572,19.98,54,51,2.77,RU,1689565812
306,qaqortoq,60.7167,-46.0333,6.81,92,94,0.95,GL,1689565813
307,prado,-17.3411,-39.2208,21.32,94,27,2.35,BR,1689565620
308,kharp,66.8014,65.8081,20.75,58,99,2.7,RU,1689565813
309,prainha,-1.8,-53.48,23.57,81,15,1.64,BR,1689565813
310,kushiro,42.975,144.3747,21.53,83,75,4.12,JP,1689565813
311,pundong,-7.9522,110.3486,27.51,63,78,6.84,ID,1689565814
312,papao,-17.75,-149.55,27.59,64,1,2.01,PF,1689565814
313,pisco,-13.7,-76.2167,18.03,77,75,1.54,PE,1689565814
314,lauro de freitas,-12.8944,-38.3272,27.01,74,40,3.6,BR,1689565705
315,valparaiso,-33.0393,-71.6273,9.8,81,0,1.54,CL,1689565524
316,hami,42.8,93.45,40.57,7,31,2.37,CN,1689565814
317,kristiansund,63.1115,7.732,16.03,82,100,1.03,NO,1689565815
318,hassi messaoud,31.6804,6.0729,32.92,9,0,4.12,DZ,1689565815
319,maraba,-5.3686,-49.1178,22.1,100,0,0.0,BR,1689565815
320,revda,56.801,59.9303,16.89,83,99,4.9,RU,1689565815
321,kuching,1.55,110.3333,33.34,65,20,4.12,MY,1689565815
322,jilin,43.0,126.0,21.76,85,99,3.73,CN,1689565815
323,loukhi,66.0764,33.0381,17.13,65,100,3.8,RU,1689565816
324,sitka,57.0531,-135.33,13.94,94,100,2.57,US,1689565816
325,al khaburah,23.9886,57.0984,35.39,55,21,2.99,OM,1689565816
326,rustaq,23.3908,57.4244,36.77,28,56,0.47,OM,1689565816
327,jeju city,33.5097,126.5219,27.96,89,100,2.06,KR,1689565816
328,zahedan,29.4963,60.8629,28.95,14,0,2.06,IR,1689565680
329,sao jose da coroa grande,-8.8978,-35.1478,23.74,83,15,3.09,BR,1689565817
330,beaufort west,-32.3567,22.583,12.47,48,77,3.65,ZA,1689565817
331,arraial do cabo,-22.9661,-42.0278,19.92,94,0,2.57,BR,1689565817
332,chui,-33.6971,-53.4616,5.01,84,63,3.51,UY,1689565817
333,namibe,-15.1961,12.1522,20.4,54,0,1.93,AO,1689565817
334,carnarvon,-24.8667,113.6333,20.46,28,0,2.26,AU,1689565818
335,nishinoomote,30.7333,131.0,31.31,79,75,6.17,JP,1689565818
336,xilin hot,43.9667,116.0333,29.03,27,24,2.31,CN,1689565818
337,nosy varika,-20.5833,48.5333,19.4,79,86,1.97,MG,1689565818
338,lebu,-37.6167,-73.65,6.25,72,99,2.5,CL,1689565818
339,'ain el hadjar,34.7585,0.1453,28.63,11,0,5.63,DZ,1689565818
340,howrah,22.5892,88.3103,28.0,94,40,2.57,IN,1689565647
341,bontang,0.1333,117.5,29.9,64,100,2.88,ID,1689565819
342,carira,-10.3608,-37.7011,18.14,96,5,1.66,BR,1689565819
343,ipatovo,45.7181,42.9036,19.11,63,42,5.54,RU,1689565819
344,kirensk,57.7853,108.1119,17.12,98,100,2.38,RU,1689565819
345,retreat,38.8245,-85.8533,24.51,83,15,0.45,US,1689565819
346,vorkuta,67.5,64.0,17.06,83,100,5.88,RU,1689565820
347,north bay,46.3168,-79.4663,20.01,88,0,2.57,CA,1689565820
348,acopiara,-6.0953,-39.4525,20.27,64,26,1.52,BR,1689565820
349,itoman,26.1247,127.6694,31.43,88,40,10.29,JP,1689565820
350,nizhnesortymskiy,62.4397,71.7603,20.46,51,34,7.53,RU,1689565820
351,tchibanga,-2.85,11.0333,19.61,92,62,1.06,GA,1689565820
352,kapa'a,22.0752,-159.319,27.99,84,75,8.75,US,1689565821
353,morant bay,17.8815,-76.4093,29.79,86,7,3.94,JM,1689565821
354,mayahi,13.9553,7.6712,31.12,41,96,1.95,NE,1689565821
355,belle fourche,44.6714,-103.8522,20.6,59,41,1.01,US,1689565821
356,afif,23.9065,42.9172,30.6,13,45,2.39,SA,1689565821
357,roma,43.2128,-75.4557,20.96,94,0,0.0,US,1689565589
358,sorong,-0.8833,131.25,26.54,83,100,3.94,ID,1689565821
359,thurgoona,-36.0451,146.9919,16.48,100,0,0.45,AU,1689565822
360,tagaw-bay,35.6994,66.0616,25.41,20,0,1.86,AF,1689565822
361,bloemfontein,-29.1211,26.214,-2.29,86,0,0.0,ZA,1689565822
362,la ronge,55.1001,-105.2842,17.14,59,100,0.0,CA,1689565822
363,oban,56.4127,-5.4706,11.32,91,100,2.41,GB,1689565822
364,cambria,35.5641,-121.0808,29.41,79,62,0.62,US,1689565822
365,kiunga,-6.1219,141.2906,28.96,62,87,1.74,PG,1689565823
366,veinticinco de mayo,-35.4323,-60.1727,3.02,72,51,3.12,AR,1689565823
367,chul'man,56.8479,124.9104,26.5,46,26,3.41,RU,1689565823
368,nanfeng,23.7434,111.7959,28.27,71,100,5.98,CN,1689565823
369,kidal,18.4411,1.4078,30.61,41,83,2.5,ML,1689565823
370,mundemba,4.9479,8.8724,23.42,97,100,0.31,CM,1689565823
371,vila franca do campo,37.7167,-25.4333,19.23,81,100,2.45,PT,1689565823
372,manturovo,58.3353,44.7619,17.45,63,7,2.17,RU,1689565824
373,camayenne,9.535,-13.6878,25.05,100,75,6.17,GN,1689565824
374,gillette,44.2911,-105.5022,22.51,57,0,5.14,US,1689565824
375,kose,40.21,39.6511,10.6,72,5,1.28,TR,1689565824
376,awjilah,29.1081,21.2869,28.15,42,13,4.86,LY,1689565824
377,port douglas,-16.4833,145.4667,23.97,68,66,7.02,AU,1689565825
378,ulladulla,-35.35,150.4667,19.31,56,4,5.19,AU,1689565825
379,behshahr,36.6923,53.5526,24.97,72,93,4.5,IR,1689565825
380,igrim,63.1906,64.4162,23.51,42,49,3.86,RU,1689565825
381,mil'kovo,55.6078,37.7956,17.73,73,1,2.56,RU,1689565825
382,tuscaloosa,33.2098,-87.5692,26.72,86,0,0.0,US,1689565825
383,catumbela,-12.4314,13.5472,21.09,75,3,1.57,AO,1689565826
384,san antonio de pale,-1.4014,5.6325,22.83,82,39,5.53,GQ,1689565826
385,ta`u,-14.2336,-169.5144,27.01,77,24,7.17,AS,1689565826
386,yeppoon,-23.1333,150.7333,25.7,68,64,7.9,AU,1689565826
387,iowa falls,42.5225,-93.2513,19.87,82,100,0.0,US,1689565826
388,rio grande,-32.035,-52.0986,4.41,79,95,4.99,BR,1689565827
389,turuntayevo,52.2,107.6167,23.05,52,72,2.36,RU,1689565827
390,candon,17.1947,120.4517,30.57,81,100,2.24,PH,1689565827
391,mugia,43.1041,-9.2179,14.39,81,3,5.08,ES,1689565827
392,la toma,-33.0526,-65.6238,3.46,51,34,1.47,AR,1689565827
393,cidreira,-30.1811,-50.2056,11.18,78,100,3.54,BR,1689565827
394,oamaru,-45.0784,170.9801,11.35,66,100,3.57,NZ,1689565828
395,visby,57.6409,18.296,18.12,68,78,5.66,SE,1689565828
396,bhabhua,25.05,83.6167,32.85,60,97,4.99,IN,1689565828
397,castelli,-25.9468,-60.6195,12.09,73,76,2.66,AR,1689565828
398,gaillimh,53.2719,-9.0489,11.62,86,49,2.92,IE,1689565828
399,gorodets,56.6514,43.475,17.17,73,31,2.99,RU,1689565828
400,mount gambier,-37.8333,140.7667,13.14,60,0,4.45,AU,1689565829
401,durban,-29.8579,31.0292,6.51,59,3,2.96,ZA,1689565829
402,pacific grove,36.6177,-121.9166,19.56,89,75,2.06,US,1689565829
403,burang,30.25,81.1667,15.4,55,71,1.68,CN,1689565829
404,sungai besar,3.6746,100.9867,30.84,60,87,1.48,MY,1689565829
405,dongola,19.1667,30.4833,31.01,14,7,3.79,SD,1689565830
406,lazaro cardenas,17.9583,-102.2,27.9,87,5,1.23,MX,1689565830
407,nagqu,31.5,92.0,11.35,43,3,2.15,CN,1689565830
408,aktau,43.65,51.2,22.32,62,100,4.98,KZ,1689565558
409,cockburn town,21.4612,-71.1419,28.58,84,20,8.27,TC,1689565830
410,isafjordur,66.0755,-23.124,7.26,69,15,1.3,IS,1689565830
411,mhamid,29.82,-5.72,29.94,8,1,3.41,MA,1689565830
412,lienz,46.8289,12.769,20.66,94,16,1.78,AT,1689565831
413,revelstoke,50.9832,-118.2023,25.01,78,75,1.54,CA,1689565831
414,nar'yan-mar,67.6713,53.087,17.13,75,71,4.12,RU,1689565831
415,acapulco de juarez,16.8634,-99.8901,29.9,23,75,2.06,MX,1689565803
416,kavieng,-2.5744,150.7967,29.26,72,50,4.59,PG,1689565831
417,zhumysker,49.3333,49.4,18.87,72,97,5.35,KZ,1689565832
418,burela de cabo,43.65,-7.4,14.49,82,7,1.19,ES,1689565832
419,ankang,32.68,109.0172,31.51,53,0,2.66,CN,1689565638
420,mascouche,45.7496,-73.5996,24.14,84,42,1.54,CA,1689565832
421,knysna,-34.0363,23.0471,15.13,61,85,1.65,ZA,1689565832
422,panaba,21.2833,-88.2667,26.31,80,48,3.48,MX,1689565832
423,taltal,-25.4,-70.4833,16.08,77,100,1.82,CL,1689565832
424,igarka,67.4667,86.5833,13.79,48,7,5.15,RU,1689565833
425,bireun,5.203,96.7009,29.66,59,100,1.7,ID,1689565833
426,san rafael,-34.6177,-68.3301,2.86,53,55,1.3,AR,1689565766
427,booue,-0.0921,11.9385,21.65,96,27,0.97,GA,1689565833
428,colares,38.7992,-9.4469,17.72,79,0,15.2,PT,1689565834
429,el nido,11.1858,119.3956,30.65,63,79,4.64,PH,1689565834
430,barranca,-10.75,-77.7667,19.14,82,37,3.87,PE,1689565834
431,lakatoro,-16.0999,167.4164,25.09,78,94,9.0,VU,1689565834
432,pontes e lacerda,-15.2261,-59.3353,20.41,61,2,0.96,BR,1689565834
433,calcinelli,43.7522,12.9195,26.73,70,0,2.15,IT,1689565834
434,waingapu,-9.6567,120.2641,28.35,56,65,7.1,ID,1689565835
435,bocas del toro,9.3333,-82.25,22.78,82,100,4.3,PA,1689565835
436,perugorria,-29.3413,-58.6106,6.12,73,32,3.64,AR,1689565835
437,manpur,22.4333,75.6167,23.94,85,99,4.01,IN,1689565835
438,bodaybo,57.8506,114.1933,29.18,47,2,1.13,RU,1689565835
439,kamyzyak,46.11,48.0736,20.01,64,0,5.0,RU,1689565835
440,kuta,-8.7233,115.1723,28.97,74,40,6.26,ID,1689565836
441,mandal,25.45,74.5667,30.57,58,53,3.47,IN,1689565836
442,pavlodar,52.3,76.95,21.89,60,0,3.0,KZ,1689565829
443,oranjemund,-28.55,16.4333,13.92,65,1,1.96,NA,1689565836
444,lonavla,18.75,73.4167,21.62,95,100,2.89,IN,1689565836
445,taroa,8.7058,171.2275,28.3,76,45,5.6,MH,1689565836
446,la'ie,21.6477,-157.9253,28.98,74,4,4.02,US,1689565645
447,sao raimundo das mangabeiras,-7.0219,-45.4811,21.57,44,4,1.2,BR,1689565837
448,kirakira,-10.4544,161.9205,25.62,93,100,3.23,SB,1689565837
449,broome,42.2506,-75.833,21.76,94,0,0.67,US,1689565837
450,ventnor city,39.3404,-74.4774,23.43,95,53,3.61,US,1689565837
451,torghay,49.6339,63.4981,28.32,26,67,5.89,KZ,1689565837
452,madalena,41.2162,-8.3345,13.5,89,5,1.31,PT,1689565837
453,kurmuk,10.55,34.2833,21.78,82,100,2.22,SD,1689565838
454,tshabong,-26.05,22.45,10.89,40,0,4.05,BW,1689565838
455,saint-joseph,-21.3667,55.6167,19.15,81,24,6.07,RE,1689565838
456,otofuke,42.9917,143.2003,25.53,78,100,4.38,JP,1689565838
457,kattivakkam,13.2167,80.3167,32.05,70,100,4.56,IN,1689565838
458,manay,7.215,126.5397,27.96,76,100,2.08,PH,1689565838
459,dolores,-36.3132,-57.6792,2.62,82,22,3.6,AR,1689565838
460,noshiro,40.2039,140.0242,26.46,87,80,4.25,JP,1689565839
461,mahina,-17.5065,-149.489,27.64,57,40,1.54,PF,1689565839
462,albertina,-22.2008,-46.6158,14.03,72,60,1.78,BR,1689565839
463,tamiahua,21.2667,-97.45,27.3,87,98,3.04,MX,1689565839
464,sabha,27.0377,14.4283,26.94,35,21,4.97,LY,1689565839
465,fort-shevchenko,44.5086,50.263,24.28,56,60,9.25,KZ,1689565839
466,arcachon,44.5875,-1.0519,19.18,82,0,1.03,FR,1689565840
467,arteche,12.2645,125.4048,31.3,62,56,1.5,PH,1689565840
468,beau vallon,-20.4189,57.6953,21.23,100,75,1.54,MU,1689565840
469,krasnoural'sk,58.3638,60.0407,18.47,66,86,3.04,RU,1689565840
470,leninskoye,41.7589,69.3864,32.86,14,0,5.17,KZ,1689565840
471,boi,9.5683,9.4953,21.84,80,62,1.85,NG,1689565840
472,kavaratti,10.5669,72.642,28.12,78,100,8.91,IN,1689565840
473,novhorod-sivers'kyy,52.0058,33.2615,17.13,72,11,1.37,UA,1689565840
474,chorhat,24.4333,81.6833,31.22,62,100,2.93,IN,1689565841
475,morrope,-6.5417,-80.0111,22.06,84,39,6.28,PE,1689565841
476,ashburton,-37.8626,145.0794,18.19,55,0,2.24,AU,1689565841
477,kill devil hills,36.0307,-75.676,27.77,87,0,0.0,US,1689565841
478,ust'-talovka,50.5493,81.85,22.94,48,2,3.32,KZ,1689565842
479,gaiman,-43.2897,-65.4929,0.41,50,0,4.59,AR,1689565842
480,zharkent,44.1628,80.0,32.6,26,100,1.99,KZ,1689565842
481,visakhapatnam,17.69,83.2093,26.94,94,100,3.09,IN,1689565843
482,monteagudo,-19.8167,-63.9833,13.11,81,100,0.78,BO,1689565843
483,bandar-e lengeh,26.5579,54.8807,33.06,89,75,0.0,IR,1689565843
484,san patricio,28.017,-97.5169,28.94,84,34,6.64,US,1689565843
485,puerto ayacucho,5.6639,-67.6236,24.1,93,100,0.86,VE,1689565843
486,illela,13.7292,5.2975,30.09,57,87,1.77,NG,1689565843
487,san lawrenz,36.0553,14.204,27.14,70,0,1.47,MT,1689565843
488,bhimunipatnam,17.8833,83.4333,26.73,77,100,4.15,IN,1689565844
489,sirte,31.2089,16.5887,25.49,78,0,2.75,LY,1689565844
490,queenstown,-31.8976,26.8753,8.23,48,47,3.06,ZA,1689565669
491,singapore,1.2897,103.8501,31.81,77,40,5.14,SG,1689565836
492,west lafayette,40.4259,-86.9081,21.73,88,100,0.0,US,1689565844
493,nikolayevsk-on-amure,53.1406,140.73,28.64,41,91,0.63,RU,1689565844
494,coquimbo,-29.9533,-71.3436,12.85,94,75,4.12,CL,1689565682
495,senanga,-16.1167,23.2667,8.53,65,3,2.51,ZM,1689565844
496,qarauyl,48.9451,79.255,23.49,45,3,3.02,KZ,1689565845
497,fortuna foothills,32.6578,-114.4119,39.05,34,0,5.14,US,1689565845
498,al kharijah,25.4514,30.5464,29.11,17,0,0.98,EG,1689565845
499,de aar,-30.6497,24.0123,8.1,34,55,2.07,ZA,1689565845
500,mersing,2.4312,103.8405,30.95,74,40,3.6,MY,1689565845
501,alindao,5.0267,21.2088,21.2,96,4,0.55,CF,1689565845
502,corinto,37.9407,22.9573,28.83,55,0,1.64,GR,1689565845
503,karbala,32.616,44.0249,35.45,20,0,3.4,IQ,1689565846
504,ulsteinvik,62.3432,5.8487,15.17,88,97,8.05,NO,1689565846
505,raduzhny,62.0961,77.475,17.8,35,56,1.57,RU,1689565846
506,obo,5.3998,26.4869,19.8,90,8,0.88,CF,1689565846
507,myrzakent,40.6667,68.5333,33.57,17,0,2.81,KZ,1689565846
508,al jawf,29.5,38.75,28.39,26,0,4.5,SA,1689565846
509,jayapura,-2.5333,140.7,32.66,75,51,1.75,ID,1689565846
510,guadalupe y calvo,26.1,-106.9667,16.67,85,93,0.85,MX,1689565847
511,okha,53.5739,142.9478,18.09,71,80,4.83,RU,1689565847
512,kenora,49.8167,-94.4337,14.54,88,100,3.09,CA,1689565847
513,copiapo,-27.3667,-70.3333,9.83,54,100,0.8,CL,1689565656
514,laurentides,46.4334,-74.9826,18.17,97,5,1.3,CA,1689565847
515,ar ruways,24.1103,52.7306,33.93,56,59,1.38,AE,1689565847
516,magong,23.5654,119.5863,29.89,67,100,2.02,TW,1689565847
517,carbonear,47.7332,-53.2148,20.41,95,98,3.97,CA,1689565848
518,mili,6.0815,171.735,28.29,73,58,6.45,MH,1689565848
519,puerto aysen,-45.4,-72.7,-5.26,98,56,0.86,CL,1689565639
520,lorengau,-2.0226,147.2712,29.63,71,97,5.64,PG,1689565848
521,la peca,-5.6111,-78.435,19.47,87,47,1.51,PE,1689565848
522,oltinko'l,40.8011,72.1634,35.21,13,5,2.35,UZ,1689565848
523,ataq,14.5377,46.8319,24.99,55,44,5.36,YE,1689565848
524,porto belo,-27.1578,-48.5531,15.65,85,42,3.56,BR,1689565848
525,rio gallegos,-51.6226,-69.2181,2.03,75,0,6.17,AR,1689565849
526,peace river,56.2501,-117.286,22.17,68,100,1.54,CA,1689565849
527,hirara,24.8,125.2833,28.92,89,75,6.69,JP,1689565849
528,palma soriano,20.2172,-75.9989,27.48,86,12,0.66,CU,1689565849
529,vanimo,-2.6741,141.3028,28.83,73,70,1.4,PG,1689565849
530,alta,69.9689,23.2717,17.59,72,75,5.66,NO,1689565849
531,along,28.1667,94.7667,23.51,99,100,0.34,IN,1689565849
532,el alto,-4.2714,-81.2147,21.19,83,54,7.03,PE,1689565850
533,konosha,60.9736,40.257,19.0,65,45,1.35,RU,1689565850
534,byalynichy,53.9983,29.7126,16.95,85,100,2.92,BY,1689565708
535,ketchikan,55.3422,-131.6461,17.26,77,75,5.66,US,1689565850
536,karcag,47.3167,20.9333,22.99,71,0,1.57,HU,1689565850
537,porto sant'elpidio,43.2583,13.7583,25.59,54,0,2.43,IT,1689565850
538,katsuura,35.1333,140.3,34.01,68,10,3.83,JP,1689565850
539,malindi,-3.2175,40.1191,25.09,78,40,4.12,KE,1689565850
540,jinjiang,24.8198,118.5741,32.52,61,78,2.15,CN,1689565851
541,patacamaya,-17.2333,-67.9167,5.03,85,3,2.53,BO,1689565851
542,bubaque,11.2833,-15.8333,27.21,82,100,7.48,GW,1689565851
543,andergrove,-21.0833,149.1833,23.69,69,70,7.14,AU,1689565851
544,angatuba,-23.4897,-48.4128,13.79,65,53,0.27,BR,1689565851
545,deogarh,21.5333,84.7333,26.24,86,100,2.16,IN,1689565851
546,roja,57.5,22.8167,16.09,89,13,5.1,LV,1689565851
547,tan-tan,28.438,-11.1032,20.45,83,97,7.07,MA,1689565852
548,chililabombwe,-12.3648,27.8229,9.66,75,2,2.29,ZM,1689565852
549,chegdomyn,51.1167,133.0167,28.48,40,44,1.96,RU,1689565852
550,zhumadian,32.9794,114.0294,32.14,47,0,4.76,CN,1689565852
551,vadso,70.0744,29.7487,13.49,93,75,3.6,NO,1689565852
552,amahai,-3.3333,128.9167,28.38,87,84,5.33,ID,1689565852
553,dauphin,51.1494,-100.0502,12.08,94,40,2.06,CA,1689565852
554,antsohihy,-14.8796,47.9875,22.14,69,17,2.97,MG,1689565853
555,kaduna,10.5222,7.4383,22.1,90,61,1.93,NG,1689565853
556,daye,30.0833,114.95,29.3,66,47,2.12,CN,1689565853
557,hammerfest,70.6634,23.6821,18.25,68,40,5.66,NO,1689565853
558,gao,16.6362,1.637,32.7,37,76,2.31,ML,1689565853
559,adrar,20.5022,-10.0711,28.78,42,61,5.26,MR,1689565853
560,merritt,50.1123,-120.7942,20.39,52,44,2.75,CA,1689565853
561,woolgoolga,-30.1106,153.2007,19.47,66,34,4.96,AU,1689565854
562,balabac,7.9868,117.0645,30.23,70,80,7.02,PH,1689565854
563,chilca,-12.5211,-76.7372,18.2,85,50,3.9,PE,1689565854
564,tofol,5.3248,163.0078,27.88,89,75,1.54,FM,1689565854
565,zelenogorskiy,55.0333,87.0,20.68,66,78,1.45,RU,1689565854
566,conceicao da barra,-18.5933,-39.7322,20.2,95,2,2.12,BR,1689565745
567,naze,28.3667,129.4833,30.51,81,77,7.54,JP,1689565854
568,puerto deseado,-47.7503,-65.8938,0.09,55,18,7.17,AR,1689565855
569,'ain el hammam,36.5647,4.3062,27.41,12,13,2.51,DZ,1689565855
570,apolinario saravia,-24.4328,-63.9954,12.02,64,93,3.77,AR,1689565855
571,champua,22.0833,85.6667,27.09,81,100,1.96,IN,1689565855
572,sao felix do xingu,-6.6447,-51.995,22.28,55,4,0.32,BR,1689565855
573,tromso,69.6496,18.957,14.01,82,75,6.17,NO,1689565855
574,davlekanovo,54.2215,55.0343,15.57,93,100,1.53,RU,1689565856
575,dalandzadgad,43.5708,104.425,31.73,14,16,2.55,MN,1689565856
576,nguigmi,14.2495,13.1092,29.2,47,82,5.04,NE,1689565856
