City_ID,City,Lat,Lng,Max Temp,Humidity,Cloudiness,Wind Speed,Country,Date
0,afaahiti,-17.75,-149.2833,27.93,60,0,0.87,PF,1689555932
1,markovo,57.3206,107.0881,18.02,94,100,1.08,RU,1689555986
2,georgetown,5.4112,100.3354,28.86,87,20,1.03,MY,1689555915
3,west island,-12.1568,96.8225,25.99,61,100,6.69,CC,1689555955
4,papatowai,-46.5619,169.4708,10.81,79,100,8.08,NZ,1689555738
5,reggane,26.7158,0.1714,36.11,11,74,2.86,DZ,1689555762
6,carnarvon,-24.8667,113.6333,16.52,33,0,3.52,AU,1689555949
7,mahajanga,-15.7167,46.3167,20.01,94,20,1.03,MG,1689555987
8,grytviken,-54.2811,-36.5092,-5.56,86,83,1.7,GS,1689555914
9,atafu village,-8.5421,-172.5159,28.65,73,95,6.38,TK,1689555946
10,souillac,-20.5167,57.5167,21.21,100,75,3.6,MU,1689555987
11,hermanus,-34.4187,19.2345,14.07,80,100,3.33,ZA,1689555736
12,susuman,62.7833,148.1667,19.22,42,99,1.47,RU,1689555767
13,puerto ayacucho,5.6639,-67.6236,25.21,88,100,1.05,VE,1689555988
14,udachny,66.4167,112.4,12.69,59,100,7.36,RU,1689555731
15,tiksi,71.6872,128.8694,7.89,82,100,4.11,RU,1689555910
16,yuzhno-kurilsk,44.0306,145.8556,14.55,87,100,1.78,RU,1689555771
17,lorengau,-2.0226,147.2712,29.62,71,100,5.83,PG,1689555988
18,ushuaia,-54.8,-68.3,2.81,75,40,2.57,AR,1689555911
19,gebeit,21.0667,36.3167,30.78,27,6,1.48,SD,1689555988
20,waitangi,-43.9535,-176.5597,11.01,84,99,2.68,NZ,1689555918
21,pingliang,35.5392,106.6861,23.5,39,4,2.9,CN,1689555989
22,la'ie,21.6477,-157.9253,28.58,72,4,0.89,US,1689555989
23,hawaiian paradise park,19.5933,-154.9731,28.18,76,75,4.63,US,1689555929
24,revda,56.801,59.9303,13.09,95,96,3.15,RU,1689555990
25,anadyr,64.75,177.4833,25.28,38,0,3.0,RU,1689555923
26,ust-nera,64.5667,143.2,15.16,47,100,3.56,RU,1689555924
27,st. john's,47.5649,-52.7093,20.15,92,75,8.23,CA,1689555910
28,lebu,-37.6167,-73.65,7.3,74,98,3.62,CL,1689555921
29,corral de bustos,-33.2821,-62.1846,6.35,54,8,2.33,AR,1689555990
30,wailua homesteads,22.0669,-159.378,28.44,75,100,7.2,US,1689555921
31,blackmans bay,-43.0167,147.3167,14.07,62,8,4.66,AU,1689555920
32,syzran',53.1585,48.4681,16.86,75,100,5.24,RU,1689555991
33,adamstown,-25.066,-130.1015,20.76,81,100,2.99,PN,1689555726
34,port mathurin,-19.6833,63.4167,22.95,71,85,11.4,MU,1689555926
35,kodiak,57.79,-152.4072,13.73,82,100,0.0,US,1689555948
36,port-aux-francais,-49.35,70.2167,2.01,55,73,4.87,TF,1689555911
37,praia da vitoria,38.7333,-27.0667,20.14,77,75,3.56,PT,1689555939
38,al abyar,32.19,20.5965,24.79,65,0,6.37,LY,1689555991
39,mudu,31.252,120.5118,29.68,76,100,5.47,CN,1689555992
40,tomatlan,19.9333,-105.25,29.13,78,100,1.69,MX,1689555941
41,brisas de zicatela,15.8369,-97.0419,28.29,61,100,0.0,MX,1689555936
42,puerto el triunfo,13.2833,-88.55,29.21,69,100,1.21,SV,1689555992
43,albany,42.6001,-73.9662,23.63,93,100,0.45,US,1689555917
44,iskateley,67.6803,53.1512,14.44,91,99,2.75,RU,1689555962
45,bilibino,68.0546,166.4372,27.44,29,95,4.2,RU,1689555910
46,limoeiro do norte,-5.1456,-38.0981,23.8,84,10,2.1,BR,1689555992
47,port lincoln,-34.7333,135.8667,11.57,62,0,3.77,AU,1689555913
48,holualoa,19.6228,-155.9522,26.91,76,75,5.66,US,1689555932
49,bethel,41.3712,-73.414,24.38,89,100,1.54,US,1689555924
50,noumea,-22.2763,166.4572,24.99,99,85,7.37,NC,1689555993
51,invercargill,-46.4,168.35,10.3,88,100,7.05,NZ,1689555928
52,ilulissat,69.2167,-51.1,5.01,93,100,2.06,GL,1689555920
53,constantia,44.1833,28.65,20.39,67,0,2.99,RO,1689555952
54,edinburgh of the seven seas,-37.0676,-12.3116,13.04,71,2,12.58,SH,1689555937
55,katsuura,35.1333,140.3,29.06,70,19,2.1,JP,1689555774
56,paraiso,9.8383,-83.8656,21.48,98,100,1.29,CR,1689555994
57,college,64.8569,-147.8028,22.99,49,100,3.6,US,1689555773
58,hamilton,39.1834,-84.5333,26.56,76,20,3.6,US,1689555953
59,warka,51.7843,21.1909,21.66,88,0,2.64,PL,1689555994
60,luderitz,-26.6481,15.1594,17.29,44,0,2.87,NA,1689555994
61,dunedin,-45.8742,170.5036,14.89,40,100,4.92,NZ,1689555768
62,puerto ayora,-0.7393,-90.3518,25.31,95,59,2.24,EC,1689555737
63,kingston,17.997,-76.7936,29.53,84,20,7.2,JM,1689555863
64,jamestown,42.097,-79.2353,22.8,78,0,2.06,US,1689555636
65,margaret river,-33.95,115.0667,14.25,80,99,3.56,AU,1689555926
66,zabrze,50.3249,18.7858,21.64,92,71,0.81,PL,1689555963
67,varva,50.495,32.7197,15.69,70,6,0.91,UA,1689555995
68,kayyerkan,69.3786,87.7439,6.28,100,24,6.5,RU,1689555995
69,el bauga,18.262,33.9081,32.65,30,14,5.18,SD,1689555995
70,nar'yan-mar,67.6713,53.087,14.5,91,100,2.77,RU,1689555911
71,necochea,-38.5473,-58.7368,5.28,87,77,4.12,AR,1689555955
72,puerto natales,-51.7236,-72.4875,-0.85,91,98,2.12,CL,1689555910
73,alice springs,-23.7,133.8833,15.75,63,40,4.12,AU,1689555969
74,beyneu,45.3167,55.2,22.14,52,80,3.49,KZ,1689555946
75,coquimbo,-29.9533,-71.3436,12.85,100,75,3.09,CL,1689555797
76,fale old settlement,-9.3852,-171.2468,28.59,75,27,7.23,TK,1689555957
77,avarua,-21.2078,-159.775,23.03,64,40,1.54,CK,1689555770
78,san antonio de pale,-1.4014,5.6325,22.87,82,36,6.14,GQ,1689555663
79,vadso,70.0744,29.7487,13.49,87,75,6.17,NO,1689555948
80,new norfolk,-42.7826,147.0587,14.72,60,38,4.85,AU,1689555947
81,taltal,-25.4,-70.4833,15.95,81,100,1.34,CL,1689555997
82,nguigmi,14.2495,13.1092,30.05,46,84,4.13,NE,1689555997
83,melekeok village,7.4957,134.6367,26.31,94,100,1.54,PW,1689555997
84,uturoa,-16.7333,-151.4333,25.8,65,0,3.59,PF,1689555909
85,ribeira grande,38.5167,-28.7,19.87,79,33,1.34,PT,1689555926
86,queenstown,-31.8976,26.8753,9.08,48,62,2.77,ZA,1689555997
87,longyearbyen,78.2186,15.6401,8.91,71,0,6.69,SJ,1689555744
88,port elizabeth,-33.918,25.5701,10.16,100,0,1.54,ZA,1689555934
89,gadzhiyevo,69.2551,33.3362,14.53,69,100,2.71,RU,1689555998
90,buta,2.7858,24.73,21.28,84,6,0.27,CD,1689555998
91,general luna,13.6881,122.1708,29.3,75,71,4.55,PH,1689555998
92,magadan,59.5667,150.8,15.56,80,53,2.18,RU,1689555998
93,balsas,-7.5325,-46.0356,24.91,37,22,1.18,BR,1689555998
94,ust-tsilma,65.441,52.1498,16.35,87,57,2.05,RU,1689555942
95,xianning,29.8833,114.2167,25.43,81,80,2.83,CN,1689555999
96,prainha,-1.8,-53.48,25.13,73,21,1.46,BR,1689555999
97,punta arenas,-53.15,-70.9167,3.06,87,75,4.63,CL,1689555941
98,dass,10.0,9.5167,23.38,70,25,1.58,NG,1689555763
99,beni mellal,32.3373,-6.3498,26.95,31,0,1.69,MA,1689555939
100,rasht,37.2808,49.5832,23.89,81,100,1.14,IR,1689555999
101,yellowknife,62.456,-114.3525,23.29,46,75,6.17,CA,1689555698
102,vilhena,-12.7406,-60.1458,22.21,51,40,1.41,BR,1689556000
103,al artawiyah,26.5053,45.3444,29.89,9,0,1.9,SA,1689556000
104,pemangkat,1.1667,108.9667,27.18,77,58,4.95,ID,1689556000
105,puerto aysen,-45.4,-72.7,-4.37,98,59,0.72,CL,1689555915
106,hadibu,12.65,54.0333,24.93,82,100,9.82,YE,1689555919
107,smithers,54.7804,-127.1743,15.18,77,75,3.09,CA,1689556000
108,achit,56.7985,57.8994,14.0,94,100,3.96,RU,1689556000
109,karratha,-20.7377,116.8463,20.62,34,0,5.21,AU,1689555829
110,badger,64.8,-147.5333,22.95,51,100,3.6,US,1689555923
111,tabas,33.5959,56.9244,31.05,18,0,0.97,IR,1689556001
112,mbanza kongo,-6.267,14.2401,19.7,77,0,0.87,AO,1689555858
113,port alfred,-33.5906,26.891,16.32,52,96,1.75,ZA,1689555930
114,olonkinbyen,70.9221,-8.7187,4.16,96,100,9.8,SJ,1689555727
115,ciudad lazaro cardenas,17.9583,-102.2,29.06,84,8,2.49,MX,1689555784
116,xinyuan,37.3,99.0,9.96,69,7,0.9,CN,1689556001
117,sitka,57.0531,-135.33,13.94,94,100,3.09,US,1689555958
118,selibaby,15.159,-12.1829,29.08,70,100,4.58,MR,1689556002
119,fada,9.5667,8.3,20.67,95,53,0.85,NG,1689556002
120,pucallpa,-8.3791,-74.5539,25.02,88,0,1.03,PE,1689556002
121,fortuna,40.5982,-124.1573,19.96,87,75,6.17,US,1689556002
122,luganville,-15.5333,167.1667,25.04,84,98,7.77,VU,1689556002
123,yeppoon,-23.1333,150.7333,24.58,71,60,6.97,AU,1689555915
124,alta,69.9689,23.2717,17.59,63,75,6.69,NO,1689556002
125,cabo san lucas,22.8909,-109.9124,32.01,68,0,3.09,MX,1689555907
126,concepcion,-36.827,-73.0498,8.89,66,0,2.06,CL,1689555752
127,chos malal,-37.3781,-70.2709,2.01,69,100,2.02,AR,1689555951
128,trinidad,-14.8333,-64.9,23.0,69,0,0.55,BO,1689555987
129,happy valley-goose bay,53.3168,-60.3315,26.17,61,75,4.63,CA,1689555943
130,iqaluit,63.7506,-68.5145,6.85,100,100,5.14,CA,1689555911
131,tolanaro,-25.0319,46.9987,17.04,88,20,1.03,MG,1689555921
132,vorgashor,67.5833,63.95,14.77,91,100,4.04,RU,1689555921
133,alofi,-19.0595,-169.9187,19.94,100,100,5.66,NU,1689555925
134,kill devil hills,36.0307,-75.676,29.01,74,0,2.06,US,1689555946
135,ngetkib,7.3645,134.5148,26.14,94,100,1.54,PW,1689556004
136,mutuali,-14.8706,37.0044,13.04,80,0,1.73,MZ,1689556004
137,klyuchi,52.2667,79.1667,17.95,75,10,3.79,RU,1689555948
138,shenjiamen,29.9576,122.298,26.94,82,92,6.25,CN,1689556004
139,penrith,54.6658,-2.7576,13.08,93,60,1.59,GB,1689555877
140,lihue,21.9789,-159.3672,28.77,68,100,7.2,US,1689555917
141,tommot,58.9564,126.2925,19.77,57,10,3.63,RU,1689556005
142,mount isa,-20.7333,139.5,24.87,44,40,5.66,AU,1689555667
143,dudinka,69.4058,86.1778,6.46,60,54,5.84,RU,1689555920
144,namtsy,62.7161,129.6658,17.29,41,9,1.11,RU,1689556005
145,zouerate,22.7187,-12.4521,28.96,34,5,6.67,MR,1689555778
146,phan rang-thap cham,11.5667,108.9833,31.07,56,100,4.6,VN,1689555831
147,baoqing,46.3317,132.2111,18.87,96,100,0.8,CN,1689556006
148,lawrence,38.9717,-95.2353,28.78,72,0,2.06,US,1689556006
149,argostolion,38.1811,20.489,26.81,61,0,0.45,GR,1689556006
150,abadeh,31.1608,52.6506,23.58,18,0,2.74,IR,1689556006
151,rongelap,11.1635,166.8941,28.37,78,98,6.73,MH,1689555777
152,williamson,30.6502,-97.6003,37.64,36,0,3.6,US,1689556006
153,velikiye luki,56.34,30.5452,16.03,64,100,3.03,RU,1689556007
154,kotel'nikovo,47.6317,43.1461,17.54,74,96,3.57,RU,1689556007
155,saacow,1.6279,42.4407,22.11,87,38,4.04,SO,1689556007
156,esfarayen,37.0765,57.5101,20.81,59,1,1.95,IR,1689555924
157,nova sintra,14.8667,-24.7167,22.78,85,100,3.81,CV,1689556007
158,grants,35.1473,-107.8514,35.13,3,0,5.14,US,1689556007
159,saipan,15.1355,145.701,31.39,100,40,6.69,MP,1689556008
160,bannu,32.9854,70.6027,31.26,57,13,1.51,PK,1689556008
161,fisterra,42.9049,-9.2629,14.3,80,7,5.09,ES,1689555922
162,westerland,54.9079,8.3033,18.01,72,75,8.23,DE,1689556008
163,chilecito,-29.1619,-67.4974,6.34,72,5,2.92,AR,1689556008
164,petropavlovsk-kamchatsky,53.0452,158.6483,19.33,68,75,2.0,RU,1689555912
165,leh,34.1667,77.5833,14.88,70,99,1.02,IN,1689556008
166,keren,15.7778,38.4581,22.8,70,8,1.48,ER,1689556009
167,kudahuvadhoo,2.6708,72.8944,28.68,74,64,6.52,MV,1689556009
168,palmer,42.1584,-72.3287,24.02,85,100,3.09,US,1689556009
169,kastamonu,41.5,33.6667,11.58,84,0,0.85,TR,1689556009
170,el calafate,-50.3408,-72.2768,-4.03,72,9,2.4,AR,1689555737
171,okondja,-0.6549,13.6753,24.68,72,81,0.56,GA,1689556009
172,lompoc,34.6391,-120.4579,31.55,71,17,1.79,US,1689555927
173,turkeli,41.9476,34.3386,21.33,65,0,1.82,TR,1689556010
174,tazovsky,67.4667,78.7,9.51,52,100,6.35,RU,1689556010
175,kapa'a,22.0752,-159.319,29.18,75,100,7.2,US,1689555937
176,thompson,55.7435,-97.8558,19.09,68,100,3.09,CA,1689555633
177,chonchi,-42.6128,-73.8092,2.29,94,8,1.0,CL,1689556010
178,isafjordur,66.0755,-23.124,7.9,66,17,1.59,IS,1689555925
179,camapua,-19.5314,-54.0439,21.65,52,5,1.95,BR,1689556010
180,saudarkrokur,65.7461,-19.6394,4.97,90,29,3.88,IS,1689555719
181,okulovka,58.4008,33.2908,14.03,83,12,1.68,RU,1689556011
182,quellon,-43.1167,-73.6167,3.72,76,6,3.4,CL,1689555758
183,yuma,32.7253,-114.6244,43.43,25,75,8.75,US,1689555914
184,vyborg,60.7076,28.7528,17.01,81,100,3.01,RU,1689556011
185,san patricio,28.017,-97.5169,32.88,66,99,7.33,US,1689555726
186,enewetak,11.3474,162.3373,28.18,79,100,6.94,MH,1689555743
187,mana,5.6592,-53.7767,25.55,90,12,4.37,GF,1689556012
188,taksimo,56.3444,114.8794,23.83,57,86,1.61,RU,1689556012
189,kurchatov,51.6601,35.6521,15.23,74,57,1.98,RU,1689556012
190,qaqortoq,60.7167,-46.0333,5.85,95,81,0.53,GL,1689555941
191,pathein,16.7833,94.7333,25.89,91,100,2.56,MM,1689556012
192,kayangel,8.0823,134.7173,28.48,81,100,6.33,PW,1689556012
193,port augusta,-32.5,137.7667,13.92,40,0,1.42,AU,1689556013
194,sao vicente,-23.9631,-46.3919,24.1,26,7,1.22,BR,1689555855
195,sandnessjoen,66.0217,12.6316,14.12,82,0,4.63,NO,1689555816
196,pierre,44.3683,-100.351,22.51,53,40,4.12,US,1689556013
197,ustyuzhna,58.8394,36.4321,14.15,83,38,1.86,RU,1689556013
198,bubaque,11.2833,-15.8333,27.71,80,100,7.85,GW,1689555930
199,leava,-14.3,-178.1667,26.53,81,91,11.16,WF,1689556013
200,konarka,19.9,86.1167,26.22,79,100,2.9,IN,1689556013
201,macherla,16.4833,79.4333,26.56,69,100,5.87,IN,1689555976
202,ayorou,14.7308,0.9174,34.47,36,100,3.33,NE,1689555898
203,san luis de la loma,17.2706,-100.8939,29.41,80,21,1.85,MX,1689555959
204,hami,42.8,93.45,36.54,10,6,2.92,CN,1689555946
205,wamba,8.9333,8.6,23.34,88,76,0.16,NG,1689556014
206,flying fish cove,-10.4217,105.6791,24.82,83,100,5.66,CX,1689555953
207,nishinoomote,30.7333,131.0,29.31,94,75,4.63,JP,1689555746
208,stanley,54.868,-1.6985,11.4,86,0,5.66,GB,1689555855
209,fuxin,42.0156,121.6589,27.06,54,0,0.28,CN,1689556015
210,okha,53.5739,142.9478,16.51,76,63,6.06,RU,1689556015
211,hammerfest,70.6634,23.6821,17.25,67,75,8.75,NO,1689555921
212,hithadhoo,-0.6,73.0833,27.42,73,87,1.14,MV,1689556015
213,prado,-17.3411,-39.2208,22.13,91,17,2.53,BR,1689556015
214,ambon,-3.6954,128.1814,28.46,100,40,2.57,ID,1689556015
215,suva,-18.1416,178.4415,21.71,94,75,4.12,FJ,1689555946
216,turuntayevo,52.2,107.6167,24.05,68,19,1.69,RU,1689556016
217,nelson bay,-32.7167,152.15,18.33,96,54,0.89,AU,1689555950
218,lormi,22.2833,81.7333,25.98,85,100,2.13,IN,1689556016
219,nabire,-3.3667,135.4833,25.19,86,100,2.12,ID,1689556016
220,flin flon,54.7682,-101.865,20.83,45,99,2.57,CA,1689556016
221,haiku-pauwela,20.9219,-156.3051,30.01,59,40,8.75,US,1689555970
222,priozersk,61.0393,30.1291,18.94,92,100,2.83,RU,1689556016
223,khandyga,62.6667,135.6,17.55,41,4,2.17,RU,1689555975
224,mgandu,-5.95,34.1333,12.67,66,0,3.55,TZ,1689556017
225,nouadhibou,20.931,-17.0347,20.99,83,0,7.72,MR,1689555978
226,dwarka,22.2394,68.9678,28.04,79,100,7.29,IN,1689555928
227,kununurra,-15.7667,128.7333,26.99,32,5,7.2,AU,1689556017
228,laojunmiao,39.8333,97.7333,26.12,18,0,3.23,CN,1689555825
229,igarka,67.4667,86.5833,9.06,62,16,2.57,RU,1689555727
230,chalus,36.655,51.4204,24.77,88,100,3.21,IR,1689556018
231,kirakira,-10.4544,161.9205,26.22,91,100,4.36,SB,1689555960
232,auki,-8.7676,160.7034,26.18,86,92,1.02,SB,1689555954
233,thames,-37.1333,175.5333,14.57,71,5,5.39,NZ,1689556018
234,tofol,5.3248,163.0078,30.88,70,75,4.12,FM,1689556018
235,jinshi,29.6049,111.8701,26.73,72,34,5.51,CN,1689556018
236,kone,-21.0595,164.8658,25.13,42,9,4.46,NC,1689555948
237,selfoss,63.9331,-20.9971,8.91,71,18,4.54,IS,1689556018
238,saint-philippe,-21.3585,55.7679,18.77,85,36,5.38,RE,1689555954
239,talnakh,69.4865,88.3972,6.23,71,61,3.91,RU,1689555931
240,newman,37.3138,-121.0208,41.68,10,100,4.42,US,1689555739
241,vorkuta,67.5,64.0,14.73,91,100,3.85,RU,1689555922
242,jieyang,23.5289,116.3642,27.96,90,100,6.56,CN,1689555847
243,kutulik,53.3508,102.7839,17.4,90,100,4.27,RU,1689556019
244,grandview,38.8858,-94.533,28.82,68,0,2.57,US,1689556019
245,sur,22.5667,59.5289,30.76,56,21,4.45,OM,1689556019
246,kerikeri,-35.2268,173.9474,18.28,66,0,1.34,NZ,1689556011
247,znamenskoye,57.1281,73.8282,15.15,70,62,1.12,RU,1689556020
248,bacabal,-4.2917,-44.7917,24.04,63,12,0.38,BR,1689555728
249,murzuq,25.9155,13.9184,28.63,15,60,3.58,LY,1689556020
250,banyuls de la marenda,42.4837,3.129,25.16,77,16,2.58,FR,1689556020
251,orsta,62.2029,6.1272,15.2,94,100,0.0,NO,1689556020
252,natal,-5.795,-35.2094,23.12,94,75,3.6,BR,1689555645
253,erenhot,43.6475,111.9767,27.07,24,60,4.88,CN,1689556021
254,port saint john's,-31.6229,29.5448,16.24,57,40,2.95,ZA,1689555948
255,north bend,43.4065,-124.2243,24.58,77,100,7.72,US,1689556021
256,papao,-17.75,-149.55,28.82,64,0,0.5,PF,1689555754
257,saint-joseph,-21.3667,55.6167,19.15,82,34,5.53,RE,1689555971
258,ebon,4.582,168.6964,28.45,75,40,4.85,MH,1689556021
259,mhamid,29.82,-5.72,32.95,5,0,5.22,MA,1689556022
260,kilifi,-3.6305,39.8499,22.96,87,10,5.8,KE,1689556022
261,whitehorse,60.7161,-135.0538,26.68,25,20,4.63,CA,1689555843
262,notodden,59.5594,9.2585,15.42,85,91,1.34,NO,1689556022
263,bredasdorp,-34.5322,20.0403,12.55,79,100,2.78,ZA,1689555924
264,jayapura,-2.5333,140.7,27.66,86,76,1.86,ID,1689555666
265,lusambo,-4.9667,23.45,25.19,41,86,0.75,CD,1689556022
266,zahedan,29.4963,60.8629,25.0,18,0,1.9,IR,1689556023
267,lindsay,36.203,-119.0882,43.11,18,0,2.57,US,1689556023
268,saint-denis,48.9167,2.3333,16.75,77,0,2.06,FR,1689556023
269,arkhangel'sk,64.5401,40.5433,15.96,73,100,2.08,RU,1689556023
270,kupang,-10.1667,123.5833,27.27,64,93,5.96,ID,1689555949
271,antalaha,-14.9003,50.2788,20.71,91,81,2.93,MG,1689555760
272,rabo de peixe,37.8,-25.5833,19.73,77,75,1.03,PT,1689556024
273,rodolfo sanchez taboada,31.7167,-116.5667,22.28,71,96,1.34,MX,1689556024
274,novo aripuana,-5.1206,-60.3797,26.77,64,91,1.38,BR,1689556024
275,ust'-kulom,61.6864,53.6902,14.28,72,83,0.44,RU,1689556024
276,lamu,-2.2717,40.902,24.56,81,3,7.33,KE,1689556024
277,santa elena de uairen,4.6167,-61.1333,20.01,89,18,1.59,VE,1689556024
278,realico,-35.0366,-64.2447,5.37,54,81,3.53,AR,1689556025
279,chernyshevskiy,63.0128,112.4714,14.82,54,100,5.15,RU,1689555775
280,buulobarde,3.8538,45.5674,22.58,85,84,6.14,SO,1689556025
281,lodja,-3.4833,23.4333,25.61,43,83,0.62,CD,1689555948
282,lazaro cardenas,17.9583,-102.2,29.06,84,8,2.49,MX,1689556025
283,taro,-8.3862,115.28,22.0,85,78,1.83,ID,1689556025
284,bull savanna,17.8868,-77.5902,25.87,82,39,3.81,JM,1689556026
285,boyolangu,-8.1181,111.8935,24.13,79,81,3.17,ID,1689556026
286,weno,7.4515,151.8468,27.19,85,100,7.75,FM,1689555761
287,bamusso,4.4591,8.9027,24.86,91,100,1.3,CM,1689556026
288,sinabang,2.4803,96.3801,26.51,82,99,2.26,ID,1689555818
289,san mariano,7.5,126.0,25.56,80,96,0.25,PH,1689556027
290,arraial do cabo,-22.9661,-42.0278,21.15,88,4,3.14,BR,1689556027
291,luwuk,-0.9516,122.7875,25.79,81,100,2.19,ID,1689556027
292,hanceville,34.0607,-86.7675,28.06,70,93,1.91,US,1689556027
293,roccella ionica,38.322,16.4009,28.54,40,0,2.67,IT,1689556028
294,cabedelo,-6.9811,-34.8339,23.37,81,14,5.17,BR,1689556028
295,posto fiscal rolim de moura,-13.0833,-62.2667,23.82,59,0,0.62,BR,1689556028
296,mount gambier,-37.8333,140.7667,10.71,71,0,4.3,AU,1689555945
297,kyshtovka,56.555,76.6271,14.55,73,94,2.04,RU,1689556028
298,nyurba,63.2842,118.3319,16.08,51,100,4.52,RU,1689556028
299,mili,6.0815,171.735,28.1,69,25,6.11,MH,1689555931
300,usinsk,65.9939,57.5281,16.04,89,100,0.6,RU,1689555944
301,guatrache,-37.6678,-63.5302,2.27,75,7,3.79,AR,1689556029
302,ugoofaaru,5.6667,73.0,28.41,76,81,7.13,MV,1689555925
303,bowen,-20.0167,148.2333,23.13,63,18,7.83,AU,1689556029
304,namibe,-15.1961,12.1522,19.71,68,0,1.81,AO,1689555939
305,merizo village,13.2658,144.6691,30.85,85,100,5.28,GU,1689556029
306,wellington,-41.2866,174.7756,14.39,76,0,6.69,NZ,1689556030
307,ati,13.2154,18.3353,31.07,50,100,6.0,TD,1689556030
308,ghat,24.9647,10.1728,28.88,12,100,0.64,LY,1689555781
309,trincomalee,8.5711,81.2335,28.1,72,83,7.93,LK,1689555757
310,motygino,58.1831,94.7592,17.16,79,22,1.99,RU,1689556030
311,mitu,1.1983,-70.1733,22.65,98,94,0.53,CO,1689556031
312,itaituba,-4.2761,-55.9836,27.56,49,78,1.19,BR,1689556031
313,sassandra,4.95,-6.0833,23.84,94,97,2.88,CI,1689556031
314,dosso,13.049,3.1937,31.74,49,96,2.8,NE,1689556031
315,cidreira,-30.1811,-50.2056,11.54,78,100,3.6,BR,1689556031
316,aketi,2.7388,23.7833,22.45,78,73,0.66,CD,1689556032
317,colombo,6.9319,79.8478,27.97,86,100,5.15,LK,1689556032
318,faya-largeau,17.9257,19.1043,32.45,14,8,0.9,TD,1689555950
319,kaa-khem,51.6833,94.7333,18.84,63,10,0.61,RU,1689556032
320,nagqu,31.5,92.0,5.41,65,0,1.55,CN,1689555822
321,kargopol',61.5071,38.9456,15.5,82,81,0.97,RU,1689556032
322,kruisfontein,-34.0033,24.7314,12.09,63,75,1.42,ZA,1689556033
323,madalena,41.2162,-8.3345,14.05,85,11,1.27,PT,1689556033
324,ciudad rodrigo,40.6,-6.5333,13.76,32,0,1.32,ES,1689556033
325,ta`u,-14.2336,-169.5144,26.88,78,27,7.7,AS,1689555948
326,saldanha,-33.0117,17.9442,13.39,88,100,0.79,ZA,1689556033
327,tezu,27.9167,96.1667,23.37,98,100,1.39,IN,1689556033
328,christchurch,-43.5333,172.6333,16.93,62,8,1.54,NZ,1689555828
329,bogale,16.2833,95.4,26.02,90,100,4.19,MM,1689556034
330,broken hill,-31.95,141.4333,11.78,47,0,3.82,AU,1689556034
331,nuuk,64.1835,-51.7216,10.34,87,100,10.8,GL,1689556034
332,usogorsk,63.4106,48.6872,16.58,78,93,1.4,RU,1689555767
333,sabha,27.0377,14.4283,29.52,28,20,6.69,LY,1689556034
334,mata-utu,-13.2816,-176.1745,27.05,81,50,7.01,WF,1689556034
335,uberlandia,-18.9186,-48.2772,19.87,59,62,1.84,BR,1689556035
336,ilhabela,-23.7781,-45.3581,18.31,85,6,1.13,BR,1689556035
337,sao tome,0.3365,6.7273,23.87,84,100,3.63,ST,1689556035
338,saint-augustin-de-desmaures,46.7406,-71.4513,21.75,96,100,2.87,CA,1689556035
339,pisco,-13.7,-76.2167,19.03,77,0,6.17,PE,1689555961
340,vila franca do campo,37.7167,-25.4333,20.23,79,100,1.96,PT,1689555911
341,klaksvik,62.2266,-6.589,8.51,88,100,8.92,FO,1689556035
342,port hedland,-20.3167,118.5667,21.03,35,6,3.09,AU,1689556036
343,ramos arizpe,25.55,-100.9667,30.44,43,78,4.59,MX,1689556036
344,saint-francois,46.4154,3.9054,14.82,88,0,0.51,FR,1689556036
345,stephenville,32.2207,-98.2023,37.07,30,0,2.57,US,1689556036
346,tarawa,1.419,172.984,31.05,70,40,3.09,KI,1689556036
347,falun,60.6036,15.626,15.53,77,86,5.27,SE,1689556037
348,xichang,27.8964,102.2634,21.88,61,4,1.02,CN,1689556037
349,calingasta,-31.3308,-69.4078,6.36,44,0,2.99,AR,1689556037
350,moussoro,13.6408,16.4901,31.77,41,8,3.7,TD,1689556037
351,keflavik,64.0049,-22.5624,10.95,66,0,6.69,IS,1689555829
352,salmon arm,50.6998,-119.3024,31.29,40,64,2.13,CA,1689556037
353,bairnsdale,-37.8333,147.6167,11.14,77,0,0.45,AU,1689556038
354,bay roberts,47.5999,-53.2648,20.36,93,70,2.24,CA,1689555802
355,ronne,55.1009,14.7066,17.95,88,84,2.57,DK,1689555797
356,okhansk,57.7186,55.3877,14.04,93,45,2.43,RU,1689556038
357,acajutla,13.5928,-89.8275,27.99,77,100,2.18,SV,1689556038
358,glendive,47.1053,-104.7125,23.79,38,0,4.63,US,1689555884
359,rio grande,-32.035,-52.0986,4.97,71,100,4.03,BR,1689556038
360,la foa,-21.7108,165.8276,23.25,49,52,3.14,NC,1689556038
361,aykhal,66.0,111.5,9.29,76,100,6.15,RU,1689555960
362,palikir - national government center,6.9248,158.1611,27.41,83,100,7.72,FM,1689556039
363,daru,-9.0763,143.2092,25.58,83,53,5.5,PG,1689555965
364,bayganin,48.6947,55.8742,17.49,71,10,6.25,KZ,1689556039
365,nova vicosa,-17.8919,-39.3719,21.59,90,7,2.67,BR,1689556018
366,qashyr,53.0675,76.1036,17.21,80,28,2.04,KZ,1689556039
367,yamada,39.4667,141.95,28.11,69,40,1.21,JP,1689556040
368,ulety,51.3572,112.4849,26.19,39,99,2.16,RU,1689556040
369,macau,22.2006,113.5461,29.89,89,75,14.92,MO,1689556040
370,bayanhongor,46.7167,100.1167,18.88,39,51,0.57,MN,1689556040
371,talcahuano,-36.7167,-73.1167,8.2,64,100,2.24,CL,1689556040
372,barra dos coqueiros,-10.9089,-37.0386,26.01,73,40,5.14,BR,1689556040
373,mirny,62.5353,113.9611,15.13,58,100,4.92,RU,1689556041
374,kavarna,43.4333,28.3333,21.99,89,0,2.89,BG,1689556041
375,ancud,-41.8697,-73.8203,2.71,81,15,4.23,CL,1689555955
376,crane,31.3974,-102.3501,36.53,19,0,7.17,US,1689555620
377,altamira,-3.2033,-52.2064,26.52,65,97,0.56,BR,1689556041
378,east london,-33.0153,27.9116,16.51,46,100,2.17,ZA,1689556041
379,tual,-5.6667,132.75,26.26,80,83,10.01,ID,1689556041
380,utrik,11.2278,169.8474,27.93,80,63,7.35,MH,1689555765
381,adilcevaz,38.8039,42.7342,17.22,63,0,3.05,TR,1689556042
382,walvis bay,-22.9575,14.5053,18.53,29,0,1.03,NA,1689555950
383,priyutnoye,46.1011,43.5072,19.07,64,96,4.01,RU,1689556042
384,launceston,-41.45,147.1667,13.67,82,75,8.75,AU,1689555956
385,motueka,-41.1333,173.0167,14.5,58,26,1.99,NZ,1689555786
386,waiuku,-37.25,174.75,16.5,75,6,5.34,NZ,1689556042
387,nuku'alofa,-21.1333,-175.2,22.01,67,67,8.53,TO,1689556043
388,zaozersk,69.4005,32.4476,13.56,79,100,1.47,RU,1689556043
389,sao jose da coroa grande,-8.8978,-35.1478,24.15,82,3,3.73,BR,1689556043
390,tulun,54.5611,100.5792,15.98,94,100,1.39,RU,1689556043
391,trzacka rastela,44.9733,15.7903,21.34,56,0,1.73,BA,1689556043
392,varzea da palma,-17.5981,-44.7308,22.26,53,61,1.08,BR,1689556043
393,chinde,26.8418,88.0763,19.65,89,100,1.41,NP,1689555973
394,puerto gaitan,4.3133,-72.0816,25.44,87,83,0.58,CO,1689556002
395,mcalester,34.9334,-95.7697,28.64,70,0,1.54,US,1689555951
396,bizhbulyak,53.6967,54.2642,13.38,92,100,2.44,RU,1689556044
397,zaraza,9.3503,-65.3245,23.32,97,100,2.25,VE,1689556044
398,priyutovo,53.9,53.9333,12.77,93,71,2.37,RU,1689556044
399,makeni,8.8833,-12.05,22.75,98,100,1.18,SL,1689556044
400,thunder bay,48.4001,-89.3168,12.26,96,76,0.44,CA,1689556044
401,nema,57.5067,50.5011,14.27,74,88,3.16,RU,1689556045
402,portland,45.5234,-122.6762,34.25,38,20,4.63,US,1689555768
403,la passe,45.5549,-0.8967,15.55,79,0,1.01,FR,1689556045
404,belyy yar,53.6039,91.3903,15.94,94,20,3.0,RU,1689555826
405,puerto baquerizo moreno,-0.9,-89.6,24.96,84,63,5.44,EC,1689555765
406,mejit,10.2753,170.8646,27.87,78,22,5.75,MH,1689556045
407,mrakovo,52.7161,56.6244,14.08,95,100,4.67,RU,1689556046
408,bolnisi,41.4479,44.5384,18.77,85,18,2.6,GE,1689556046
409,pampas,-12.4,-74.9,8.82,96,41,1.98,PE,1689556046
410,dalhousie,32.5333,75.9833,16.84,87,94,1.56,IN,1689556046
411,fort mcmurray,56.7268,-111.381,24.73,43,0,5.14,CA,1689555939
412,hotan,37.0997,79.9269,30.4,15,100,0.39,CN,1689555764
413,dryden,49.7833,-92.7503,14.16,88,100,5.14,CA,1689555726
414,kristiansund,63.1115,7.732,15.36,82,100,2.06,NO,1689556047
415,kayar,14.9192,-17.1211,27.53,80,100,5.91,SN,1689556047
416,island harbour,50.724,-1.2758,16.07,87,15,2.24,GB,1689555783
417,severo-yeniseyskiy,60.3725,93.0408,10.8,94,100,1.66,RU,1689555780
418,utete,-7.986,38.758,19.58,91,55,1.09,TZ,1689556048
419,hechuan,29.9947,106.2572,28.6,77,0,0.62,CN,1689556048
420,bol,13.4586,14.7147,27.79,69,14,4.25,TD,1689556048
421,sirjan,29.452,55.6814,25.01,21,0,2.85,IR,1689556048
422,nampula,-15.1165,39.2666,18.97,88,20,3.6,MZ,1689556048
423,mukalla,14.5425,49.1242,29.07,69,100,0.67,YE,1689556048
424,embi,48.8264,58.1442,19.29,51,100,5.17,KZ,1689556049
425,indianola,41.3581,-93.5574,26.01,74,100,0.45,US,1689556049
426,isangel,-19.55,169.2667,23.19,68,63,7.41,VU,1689555817
427,popondetta,-8.7537,148.2534,31.13,49,73,2.06,PG,1689556049
428,arno,60.1167,18.6333,15.99,82,0,5.99,SE,1689555970
429,sijunjung,-0.6876,100.9537,23.36,92,99,0.44,ID,1689556049
430,kailua-kona,19.6406,-155.9956,28.98,76,75,5.66,US,1689555956
431,mount pearl,47.5166,-52.7813,19.69,92,75,8.23,CA,1689555825
432,monrovia,6.3005,-10.7969,24.87,87,100,2.52,LR,1689556035
433,marka,1.7159,44.7717,24.45,83,99,7.7,SO,1689556050
434,steyr,48.0427,14.4213,21.16,80,6,1.95,AT,1689556050
435,lisala,2.15,21.5167,23.13,71,43,0.56,CD,1689556050
436,oriximina,-1.7656,-55.8661,27.63,60,85,2.08,BR,1689556029
437,sisimiut,66.9395,-53.6735,7.54,95,100,2.16,GL,1689556051
438,juneau,58.3019,-134.4197,18.0,92,100,2.57,US,1689556018
439,gizo,-8.103,156.8419,27.21,78,50,2.02,SB,1689556051
440,nizhnevartovsk,60.9344,76.5531,13.01,71,0,1.0,RU,1689555831
441,turpan,42.9333,89.1667,39.95,12,13,1.82,CN,1689556051
442,vernon,50.2581,-119.2691,30.8,42,78,1.34,CA,1689556051
443,xiangxiang,27.7333,112.5333,27.55,61,21,4.78,CN,1689556052
444,bodo,67.28,14.405,13.3,94,0,5.66,NO,1689556052
445,baki,-7.6128,110.7839,24.76,69,39,3.84,ID,1689556052
446,mangrol,21.1167,70.1167,27.61,83,51,5.92,IN,1689556053
447,nantucket,41.2835,-70.0995,24.44,95,75,7.2,US,1689556053
448,kapuskasing,49.4169,-82.4331,17.05,82,75,2.06,CA,1689555979
449,cambria,35.5641,-121.0808,33.41,67,93,1.69,US,1689556053
450,izumo,35.3667,132.7667,31.94,66,20,1.03,JP,1689556054
451,moyynkum,44.2914,72.9469,27.05,28,3,4.62,KZ,1689556054
452,cartagena,10.3997,-75.5144,24.79,94,75,3.09,CO,1689555762
453,hangu,39.2489,117.7892,30.02,41,0,2.18,CN,1689556054
454,katabu,-4.9333,122.5167,26.17,77,91,0.61,ID,1689556054
455,youkounkoun,12.5333,-13.1333,23.43,99,100,2.3,GN,1689556054
456,muisne,0.6,-80.0333,26.31,84,100,3.97,EC,1689556055
457,menaka,15.9182,2.4022,34.67,34,100,3.82,ML,1689556055
458,kaoma,-14.7833,24.8,8.77,70,0,2.53,ZM,1689556055
459,freetown,8.484,-13.2299,25.16,86,100,3.29,SL,1689555913
460,sodankyla,67.4167,26.6,15.86,84,100,4.97,FI,1689555798
461,mossel bay,-34.1831,22.146,15.3,67,36,1.94,ZA,1689556055
462,fiambala,-27.6871,-67.6149,9.15,43,87,1.23,AR,1689556055
463,korla,41.7597,86.1469,32.81,19,72,5.96,CN,1689556056
464,vilyuchinsk,52.9306,158.4028,20.15,85,62,2.15,RU,1689555816
465,mthatha,-31.5889,28.7844,10.5,49,62,2.05,ZA,1689556056
466,nemuro,43.3236,145.575,12.79,93,100,3.56,JP,1689556056
467,isla vista,34.4133,-119.861,32.97,60,0,3.6,US,1689556056
468,fort bragg,35.139,-79.006,30.75,71,0,0.0,US,1689555917
469,al jadid,27.05,14.4,29.52,28,20,6.69,LY,1689556057
470,saint-pierre,-21.3393,55.4781,19.76,68,0,2.57,RE,1689556057
471,raduzhny,62.0961,77.475,13.36,51,79,0.42,RU,1689556057
472,laascaanood,8.4774,47.3597,23.42,59,56,13.39,SO,1689556057
473,draganesti-olt,44.1667,24.5333,24.07,52,0,2.2,RO,1689556057
474,dakhla,23.6848,-15.958,19.79,91,0,8.11,EH,1689556057
475,micheweni,-4.9667,39.8333,23.86,80,4,5.63,TZ,1689556058
476,diapaga,12.0708,1.7889,27.61,67,100,2.32,BF,1689555933
477,olinda,-8.0089,-34.8553,22.85,100,75,0.51,BR,1689555970
478,bel ombre,-4.6167,55.4167,25.43,83,100,9.56,SC,1689556058
479,homer,59.6425,-151.5483,14.32,88,100,2.06,US,1689556058
480,harstad,68.799,16.5293,13.66,99,100,9.39,NO,1689555979
481,ketchikan,55.3422,-131.6461,18.26,72,75,7.2,US,1689555968
482,buckie,57.6757,-2.9624,11.69,95,100,9.57,GB,1689556059
483,ballycastle,55.2044,-6.243,9.94,94,19,3.92,GB,1689556059
484,labuan,5.2767,115.2417,27.4,78,100,4.51,MY,1689556059
485,quang ngai,15.1167,108.8,25.08,86,100,2.3,VN,1689556059
486,sergeyevka,53.88,67.4158,17.83,75,100,5.58,KZ,1689556059
487,pollenca,39.8768,3.0163,27.1,89,95,2.24,ES,1689556060
488,takoradi,4.8845,-1.7554,24.31,91,74,3.53,GH,1689556060
489,qaisumah,28.3112,46.1273,31.27,10,0,2.95,SA,1689556060
490,ust'-ordynskiy,52.805,104.7508,18.15,89,100,2.28,RU,1689556060
491,tefe,-3.3542,-64.7114,23.71,90,49,1.0,BR,1689555784
492,nizhnesortymskiy,62.4397,71.7603,16.04,61,25,5.44,RU,1689556060
493,wenchang,30.904,118.4887,24.68,96,100,2.01,CN,1689556061
494,pacific grove,36.6177,-121.9166,24.25,80,0,3.09,US,1689555865
495,as sulaymaniyah,35.5611,45.4375,20.24,32,0,2.57,IQ,1689556061
496,hasaki,35.7333,140.8333,34.05,71,100,4.18,JP,1689556061
497,richards bay,-28.783,32.0377,16.23,86,0,1.94,ZA,1689556061
498,abaete,-19.16,-45.4458,21.57,60,87,0.29,BR,1689555821
499,mawu,29.5923,107.3139,25.87,68,0,0.88,CN,1689556061
500,cudillero,43.5622,-6.1459,18.51,82,100,0.0,ES,1689556062
501,lesko,49.4701,22.3304,19.06,72,10,0.57,PL,1689556062
502,conceicao do araguaia,-8.2578,-49.2647,24.64,43,8,0.84,BR,1689555788
503,road town,18.4167,-64.6167,29.05,74,40,4.63,VG,1689556062
504,heinola,61.2056,26.0381,16.11,98,100,2.52,FI,1689556062
505,hailun,47.45,126.9333,21.62,71,81,4.37,CN,1689556062
506,tura,25.5198,90.2201,25.26,86,100,1.53,IN,1689555929
507,kavieng,-2.5744,150.7967,29.09,71,30,3.42,PG,1689555938
508,mar del plata,-38.0023,-57.5575,5.61,90,52,4.92,AR,1689556063
509,caconda,-13.7333,15.0667,13.62,40,8,3.08,AO,1689556063
510,goundam,16.4145,-3.6708,31.17,53,12,3.84,ML,1689556063
511,gobabis,-22.45,18.9667,9.39,43,0,4.82,NA,1689556063
512,sao gotardo,-19.3111,-46.0489,16.46,67,72,0.64,BR,1689556063
513,contamana,-7.3333,-75.0167,24.46,83,45,0.96,PE,1689556064
514,hino,35.6731,139.4003,35.64,53,40,1.79,JP,1689555784
515,ilha de mocambique,-15.0342,40.7358,22.52,78,1,6.82,MZ,1689556064
516,shakhtersk,48.0625,38.5167,16.03,76,44,2.91,UA,1689556064
517,corvallis,44.5646,-123.262,33.39,44,0,9.77,US,1689555829
518,vila velha,-20.3297,-40.2925,21.64,80,0,2.57,BR,1689556045
519,rengo,-34.4167,-70.8667,10.4,71,100,1.27,CL,1689556064
520,qurayyat,31.3318,37.3428,28.24,29,0,4.61,SA,1689556064
521,ridgecrest,35.6225,-117.6709,46.49,7,0,4.63,US,1689556023
522,villa tupac amaru,-13.7,-76.15,18.6,77,0,6.17,PE,1689556065
523,kita,13.0349,-9.4895,23.96,88,100,1.41,ML,1689556065
524,progreso,21.2833,-89.6667,31.17,85,6,7.33,MX,1689556065
525,umm kaddadah,13.6017,26.6876,31.24,41,5,4.4,SD,1689556065
526,manokwari,-0.8667,134.0833,27.86,72,100,0.85,ID,1689556065
527,porto novo,6.4965,2.6036,26.9,89,100,3.09,BJ,1689555634
528,volksrust,-27.3654,29.8818,4.6,58,0,1.09,ZA,1689556066
529,senador canedo,-16.7081,-49.0931,20.63,73,0,1.03,BR,1689555778
530,aoulef,26.9667,1.0833,35.22,7,19,8.58,DZ,1689556066
531,hilo,19.7297,-155.09,28.3,80,75,4.63,US,1689555949
532,padang,-0.9492,100.3543,26.03,80,100,0.89,ID,1689556066
533,ingenio la esperanza,-24.2255,-64.839,11.78,68,16,0.34,AR,1689556066
534,carutapera,-1.195,-46.02,23.7,94,23,2.62,BR,1689556067
535,aldinga beach,-35.2793,138.4604,14.59,55,0,3.48,AU,1689556067
536,giado,31.9582,12.0203,26.97,14,0,3.61,LY,1689556067
537,dauphin,51.1494,-100.0502,17.45,62,49,3.27,CA,1689556067
538,shingu,33.7333,135.9833,31.85,55,0,1.23,JP,1689556067
539,watertown,42.3709,-71.1828,23.89,94,75,3.6,US,1689555800
540,mutoko,-17.397,32.2268,7.17,67,0,1.74,ZW,1689556067
541,cukai,4.25,103.4167,26.14,87,92,1.8,MY,1689556068
542,fatwa,25.5167,85.3167,29.05,77,100,4.91,IN,1689556068
543,la ronge,55.1001,-105.2842,21.12,45,100,2.06,CA,1689555778
544,kenai,60.5544,-151.2583,14.05,94,100,2.06,US,1689556068
545,salida,37.7058,-121.0849,41.72,30,0,4.63,US,1689556068
546,wuwei,37.9281,102.6414,27.0,24,6,0.29,CN,1689556068
547,swift current,50.2834,-107.8014,22.48,38,0,2.7,CA,1689556068
548,tangalle,6.024,80.7911,26.09,85,99,5.23,LK,1689556069
549,zhu cheng city,35.995,119.4026,28.51,54,19,2.63,CN,1689556069
550,bandarbeyla,9.4942,50.8122,24.55,76,44,13.42,SO,1689556069
551,srivardhan,18.0333,73.0167,26.47,86,100,5.72,IN,1689556069
552,sinjai,-5.1241,120.253,26.63,72,34,1.77,ID,1689556069
553,pitimbu,-7.4706,-34.8086,23.33,81,0,4.84,BR,1689556070
554,altay,47.8667,88.1167,22.85,26,0,0.7,CN,1689556070
555,swakopmund,-22.6833,14.5333,20.76,31,0,5.21,NA,1689556070
